"Status","Suburb","Place","Date","Arrival.Time","Departure.Time","table","type","lat","lon"
"","Canberra City","Fiction Bar, 50 Bunda Street, Canberra City","Saturday 7 August 2021","9:00pm","11:59pm","Close Contacts","Close Contacts ",-35.2778169,149.1316294
"","Canberra City","Fiction Bar, 50 Bunda Street, Canberra City","Sunday 8 August 2021","12:00am","4:45am","Close Contacts","Close Contacts ",-35.2778169,149.1316294
"","Woden","Church of Pentecost, 19B Irving Street","Sunday 8 August 2021","10:30am","1:00pm","Close Contacts","Close Contacts ",-35.3375595,149.0865906
"","Fyshwick","Freedom Furniture, Canberra Outlet Centre, Shop 27, 337 Canberra Avenue","Sunday 8 August 2021","2:00pm","2:20pm","Close Contacts","Close Contacts ",-35.3367379,149.1786827
"","Fyshwick","JB HiFi, Canberra Outlet Centre, Shop t26, 337 Canberra Avenue","Sunday 8 August 2021","2:15pm","2:55pm","Close Contacts","Close Contacts ",-35.3366103,149.1783856
"","Fyshwick","TK Maxx, Canberra Outlet Centre, 337 Canberra Avenue","Sunday 8 August 2021","3:10pm","3:40pm","Close Contacts","Close Contacts ",-35.3367379,149.1786827
"","Fyshwick","Windsor Smith, Canberra Outlet Centre, T103/337 Canberra Avenue","Sunday 8 August 2021","2:45pm","3:15pm","Close Contacts","Close Contacts ",-35.3367379,149.1786827
"","Braddon","Assembly The People’s Pub, 11 Lonsdale Street","Sunday 8 August 2021","8:00pm","9:00pm","Close Contacts","Close Contacts ",-35.2743976,149.1322968
"","Downer","Downer Community Centre, 6 Frencham Place","Sunday 8 August 2021","1:00pm","6:00pm","Close Contacts","Close Contacts ",-35.2448948,149.1445996
"","Fyshwick","Stockade Training Centre, 7 Kembla Street","Monday 9 August 2021","7:30am","1:00pm","Close Contacts","Close Contacts ",-35.325788,149.1779729
"","Nicholls","Gold Creek School (including early childhood learning), Kelleway AvenueFAQs for schools","Monday 9 August 2021","8:25am","5:00pm","Close Contacts","Close Contacts ",-35.1812815,149.1004454
"","Lyneham","Lyneham High School - Goodwin StreetFAQs for schools","Monday 9 August 2021","8:30am","3:30pm","Close Contacts","Close Contacts ",-35.2524674,149.130518
"","Public Transport","Bus Route 30 – Dickson to Kaleen - Stops Cowper Street Dickson to Kaleen High School","Monday 9 August 2021","3:43pm","4:10pm","Close Contacts","Close Contacts ",-35.2548139,149.1389487
"","Phillip","Lennock Jaguar Land Rover, 126 Melrose Drive","Monday 9 August 2021","8:30am","5:30pm","Close Contacts","Close Contacts ",-35.356842,149.0891491
"","Mawson","Al Manoosh Bakery, 47 Mawson Place","Monday 9 August 2021","12:00pm","1:00pm","Close Contacts","Close Contacts ",-35.3654919,149.0949976
"","Kaleen","Instrumental Music Program Rehearsal Room, UC High School Kaleen- Baldwin Street","Monday 9 August 2021","4:00pm","6:00pm","Close Contacts","Close Contacts ",-35.225262,149.100475
"","Phillip","Club Lime, Lower Ground Floor, Bonner House, Bradley Street","Monday 9 August 2021","5:30pm","7:30pm","Close Contacts","Close Contacts ",-35.3460021,149.0875902
"","Nicholls","Gold Creek School (including early childhood learning), Kelleway AvenueFAQs for schools","Tuesday 10 August 2021","8:00am","3:10pm","Close Contacts","Close Contacts ",-35.1812815,149.1004454
"","Fyshwick","Pellegrino’s Café, 7/49 Wollongong Street","Tuesday 10 August 2021","7:15am","8:15am","Close Contacts","Close Contacts ",-35.3247984,149.1794654
"","Phillip","Lennock Jaguar Land Rover, 126 Melrose Drive","Tuesday 10 August 2021","8:30am","5:30pm","Close Contacts","Close Contacts ",-35.356842,149.0891491
"","Lyneham","Lyneham High School - Goodwin StreetFAQs for schools","Tuesday 10 August 2021","8:30am","3:30pm","Close Contacts","Close Contacts ",-35.2524674,149.130518
"","Fyshwick","Stockade Training Centre, 7 Kembla Street","Tuesday 10 August 2021","9:00am","11:00am","Close Contacts","Close Contacts ",-35.325788,149.1779729
"","Manuka","Urban Pantry, 5 Bougainville Street","Tuesday 10 August 2021","10:30am","1:00pm","Close Contacts","Close Contacts ",-35.320762,149.13243
"","Fyshwick","Harvey Norman, Barrier Street","Tuesday 10 August 2021","10:00am","11:00am","Close Contacts","Close Contacts ",-35.3260397,149.1659681
"","Canberra City","Coffee Guru Canberra Centre, Shop K05, Canberra Centre, 148 Bunda Street","Tuesday 10 August 2021","12:00pm","1:00pm","Close Contacts","Close Contacts ",-35.2802191,149.133323
"","Mitchell","St Vincent de Paul, 32 Buckland Street","Tuesday 10 August 2021","3:30pm","4:00pm","Close Contacts","Close Contacts ",-35.2167073,149.1392156
"","Bruce","Club Lime – CISAC, 100 Eastern Valley Way","Tuesday 10 August 2021","6:30pm","8:15pm","Close Contacts","Close Contacts ",-35.24194,149.0743398
"","Nicholls","Gold Creek School (including early childhood learning), Kelleway AvenueFAQs for schools","Wednesday 11 August 2021","8:00am","5:00pm","Close Contacts","Close Contacts ",-35.1812815,149.1004454
"","Phillip","Lennock Jaguar Land Rover, 126 Melrose Drive","Wednesday 11 August 2021","8:30am","5:30pm","Close Contacts","Close Contacts ",-35.356842,149.0891491
"","Lyneham","Lyneham High School - Goodwin StreetFAQs for schools","Wednesday 11 August 2021","8:30am","3:30pm","Close Contacts","Close Contacts ",-35.2524674,149.130518
"","Mitchell","North Canberra Business Centre, 54 Vicars Street","Wednesday 11 August 2021","11:10am","11:30am","Close Contacts","Close Contacts ",-35.210138,149.1443583
"","Cook","Companion House, 41 Templeton Street","Wednesday 11 August 2021","11:30am","11:45am","Close Contacts","Close Contacts ",-35.2590484,149.0615234
"","Kingston","Capital Chemist, Green Square, 62 Jardine Street","Wednesday 11 August 2021","12 noon","12:15pm","Close Contacts","Close Contacts ",-35.3159461,149.1415931
"","Griffith","Coles Manuka, Franklin Street and Flinders Way","Wednesday 11 August 2021","12:15pm","12:40pm","Close Contacts","Close Contacts ",-35.3210247,149.1341946
"","Gungahlin","Gunners Place – Youth Centre, Level 1, 20 Hibberson Street","Wednesday 11 August 2021","1:30pm","2:30pm","Close Contacts","Close Contacts ",-35.1852318,149.133036
"","Bruce","Club Lime – CISAC, 100 Eastern Valley Way","Wednesday 11 August 2021","4:45pm","7:15pm","Close Contacts","Close Contacts ",-35.24194,149.0743398
"","Kingston","Turkish Delight, 75/71 Giles Street","Wednesday 11 August 2021","6:35pm","6:45pm","Close Contacts","Close Contacts ",-35.3129422,149.1457753
"","Fyshwick","Pellegrino’s Café, 7/49 Wollongong Street","Wednesday 11 August 2021","8:30am","8:35am","Close Contacts","Close Contacts ",-35.3247984,149.1794654
"","Fyshwick","Pellegrino’s Café, 7/49 Wollongong Street","Wednesday 11 August 2021","12:00pm","13:00pm","Close Contacts","Close Contacts ",-35.3247984,149.1794654
"","Nicholls","Gold Creek School, Kelleway Avenue(including Early Childhood Learning Centre)FAQs for schools","Thursday 12 August 2021","8:00am","3:10pm","Close Contacts","Close Contacts ",-35.1799885,149.0941286
"","Fyshwick","Pellegrino’s Café, 7/49 Wollongong Street","Thursday 12 August 2021","8:30am","8:35am","Close Contacts","Close Contacts ",-35.3247984,149.1794654
"","Lyneham","Lyneham High School - Goodwin StreetFAQs for schools","Thursday 12 August 2021","8:30am","3:30pm","Close Contacts","Close Contacts ",-35.2524674,149.130518
"","Phillip","Lennock Jaguar Land Rover, 126 Melrose Drive","Thursday 12 August 2021","8:30am","5:30pm","Close Contacts","Close Contacts ",-35.356842,149.0891491
"","Canberra City","Coffee Guru Canberra Centre, Shop K05, Canberra Centre, 148 Bunda Street","Thursday 12 August 2021","10:45am","12:00pm","Close Contacts","Close Contacts ",-35.2802191,149.133323
"","Phillip","Lennock Jaguar Land Rover, 126 Melrose Drive","Friday 13 August 2021","8:30am","5:30pm","Close Contacts","Close Contacts ",-35.356842,149.0891491
"","Nicholls","Gold Creek Senior Campus Gym 26 Kelleway Ave, Nicholls","Monday 9 August 2021","5:00pm","9.30pm","Close Contacts","Close Contacts ",-35.1812815,149.1004454
"","Amaroo","Priceline Pharmacy Amaroo Shop/ 6 Pioneer Street","Thursday 12 August 2021","5:00pm","6.45pm","Close Contacts","Close Contacts ",-35.164779,149.1324158
"","Gungahlin","Commonwealth Bank Gungahlin Shop 23-25 Gungahlin Mall, 33 Hibberson St","Thursday 12 August 2021","9.30am","10:00am","Close Contacts","Close Contacts ",-35.1853356,149.1346788
"","Mawson","Club Lime Mawson  Mawson Southlands Shopping Centre, Level 1, Mawson Dr, Mawson","Monday 9 August 2021","4.30pm","6.30pm","Close Contacts","Close Contacts ",-35.3652383,149.0944679
"","Kingston","Subsdance Dance Studio 1/27-29 Eyre St, Kingston","Tuesday 10 August 2021","6:00pm","8:00pm","Close Contacts","Close Contacts ",-35.3163164,149.1416681
"","Bruce","CIT Bruce Campus: Individuals who attended Building H only 35 Vowels Cres, Bruce","Tuesday 10 August 2021","8.45am","4.30pm","Close Contacts","Close Contacts ",-35.2481112,149.0946633
"","Bruce","CIT Bruce Campus: Psych Accredited Class, Room G102 35 Vowels Cres, Bruce","Tuesday 10 August 2021","6:00pm","8:00pm","Close Contacts","Close Contacts ",-35.2481112,149.0946633
"","Bruce","CIT Bruce Campus: Individuals who attended Building H only 35 Vowels Cres, Bruce","Wednesday 11 August 2021","12.30pm","4.40pm","Close Contacts","Close Contacts ",-35.2481112,149.0946633
"","Reid","CIT Reid Campus: Entire Campus  37 Constitution Ave, Reid","Wednesday 11 August 2021","8.45am","3:00pm","Close Contacts","Close Contacts ",-35.2864723,149.1374298
"","Reid","CIT Reid Campus: Entire Campus  37 Constitution Ave, Reid","Thursday 12 August 2021","9:00am","2.30pm","Close Contacts","Close Contacts ",-35.2864723,149.1374298
"","Gungahlin","Club Lime Gungahlin Level 1, Gungahlin Square, 43 Hibberson St, Gungahlin","Wednesday 11 August 2021","5:00am","6.30am","Close Contacts","Close Contacts ",-35.1854156,149.1360241
"","Braddon","The Civic Pub  8 Lonsdale Street","Wednesday 11 August 2021","5:00pm","8.30pm","Close Contacts","Close Contacts ",-35.2749938,149.1327273
"","Mitchell","Melt 109 Flemington Road","Thursday 12 August 2021","7.30am","8:00am","Close Contacts","Close Contacts ",-35.2204521,149.14453
"","Mitchell","Lawrence & Hanson Mitchell 2/67-71  Vicars Street","Thursday 12 August 2021","7.30am","8:00am","Close Contacts","Close Contacts ",-35.21061,149.1398
"","Mitchell","Lawrence & Hanson Mitchell 2/67-71  Vicars Street","Thursday 12 August 2021","12.40pm","1:00pm","Close Contacts","Close Contacts ",-35.21061,149.1398
"","Franklin","Franklin General Practice 54 Nullarbor Avenue","Thursday 12 August 2021","2.15pm","3.15pm","Close Contacts","Close Contacts ",-35.2007392,149.1471045
"","Braddon","The Civic Pub 8 Lonsdale Street","Monday 9 August 2021","3.45pm","9.45pm","Close Contacts","Close Contacts ",-35.2749938,149.1327273
"","Braddon","Assembly 11 Lonsdale Street","Tuesday 10 August 2021","7.30pm","10.15pm","Close Contacts","Close Contacts ",-35.2743976,149.1322968
"","Kingston","Gelato Messina Kingston 38 Eyre St, Kingston","Wednesday 11 August 2021","8:00pm","8.40pm","Close Contacts","Close Contacts ",-35.3165027,149.1424717
"","Griffith","Power Kart Raceway 125 Canberra Ave, Griffith","Wednesday 11 August 2021","7.15pm","8.30pm","Close Contacts","Close Contacts ",-35.3219801,149.1498478
"","Barton","F45 Training 10 National Circuit, Barton","Tuesday 10 August 2021","5:00am","8:00am","Close Contacts","Close Contacts ",-35.3085945,149.1339174
"","Barton","F45 Training 10 National Circuit, Barton","Wednesday 11 August 2021","5:00am","8:00am","Close Contacts","Close Contacts ",-35.3085945,149.1339174
"","Barton","F45 Training 10 National Circuit, Barton","Thursday 12 August 2021","5:00am","8:00am","Close Contacts","Close Contacts ",-35.3085945,149.1339174
"","Canberra City","Guzman y Gomez Shop EG07-07B Bunda St, Canberra","Tuesday 10 August 2021","5.45pm","6.45pm","Close Contacts","Close Contacts ",-35.2786183,149.1331753
"","Belconnen","Belconnen Hungry Jacks 108 Emu Bank, Road, Belconnen","Friday 13 August 2021","3.45pm","11.30pm","Close Contacts","Close Contacts ",-35.2363112,149.0703854
"","Belconnen","Belconnen Hungry Jacks 108 Emu Bank, Road, Belconnen","Saturday 14 August 2021","8:00am","3.15pm","Close Contacts","Close Contacts ",-35.2363112,149.0703854
"","Bruce","CISAC-Club Lime100 Eastern Valley Way","Monday 9 August 2021","7:00pm","9:00pm","Close Contacts","Close Contacts ",-35.2419481,149.0749404
"New","Lyneham","Capital Chemist, 76 Wattle Street,","Tuesday 10 August 2021","2.45pm","3.50pm","Close Contacts","Close Contacts New",-35.2524651,149.1250304
"New","Kaleen","Coles Supermarket, Kaleen, 1 Maribyrnong Ave","Thursday 12 August 2021","12.45pm","2.45pm","Close Contacts","Close Contacts New",-35.2202787,149.1028228
"New","Farrer","GGs Flowers & Hampers, Unit 3D Farrer Shops","Wednesday 11 August 2021","12.15pm","2:00pm","Close Contacts","Close Contacts New",-35.37559,149.1018
"New","Evatt","IGA Evatt, Heydon Place","Wednesday 11 August 2021","9:00am","3:00pm","Close Contacts","Close Contacts New",-35.208918,149.073362
"New","Belconnen","Westfield Food Court , Yum Cha, Benjamin Way","Wednesday 11 August 2021","3:00pm","4.30pm","Close Contacts","Close Contacts New",-35.2379343,149.0652428
"New","Evatt","IGA Evatt, Heydon Place","Wednesday 11 August 2021","4:00pm","8.15pm","Close Contacts","Close Contacts New",-35.208918,149.073362
"New","Charnwood","St Thomas Aquinas Primary School, 25 Lhotsky Street","Thursday 12 August 2021","8.30am","4:00pm","Close Contacts","Close Contacts New",-35.2052771,149.0304825
"New","Belconnen","UCSSC Lake Ginninderra: Gymnasium and Cafeteria/Canteen area, 2 Emu Bank","Monday 9 August 2021","10:00am","1.30pm","Close Contacts","Close Contacts New",-35.2387098,149.0736849
"New","Harrison","Harrison School  primary and secondary campuses, 20 Wimmera Street,","Wednesday 11 August 2021","8.30am","3.30pm","Close Contacts","Close Contacts New",-35.1996408,149.1522772
"New","Harrison","Harrison School  primary and secondary campuses, 20 Wimmera Street","Thursday 12 August 2021","8.30am","3.30pm","Close Contacts","Close Contacts New",-35.1996408,149.1522772
"","Fyshwick","Central Food Court, Canberra Outlet Centre","Sunday 8 August 2021","1:30pm","2:30pm","Casual Contacts","Casual Contacts ",-35.2802271,149.1332559
"","Fyshwick","Boost Juice, Canberra Outlet Centre, 377 Canberra Avenue","Sunday 8 August 2021","1:35pm","2:05pm","Casual Contacts","Casual Contacts ",-35.337263,149.1776894
"","Amaroo","Coles Amaroo, Horse Park Drive","Sunday 8 August 2021","4:00pm","4:20pm","Casual Contacts","Casual Contacts ",-35.1646128,149.1317816
"","Nicholls","Holy Spirit Catholic Primary School, 26 Kelleway Avenue(including Early Childhood Learning Centre)FAQs for schools","Monday 9 August 2021","8:25am","5:00pm","Casual Contacts","Casual Contacts ",-35.180284,149.1011436
"","Dickson","Woolworths Dickson, Dickson Place","Monday 9 August 2021","3:00pm","4:00pm","Casual Contacts","Casual Contacts ",-35.249974,149.1386251
"","Dickson","KFC Dickson, Bradham Street and Wooley Streets Dickson","Monday 9 August 2021","3:00pm","4:00pm","Casual Contacts","Casual Contacts ",-35.2495219,149.1375976
"","Fyshwick","St George Bank, 58 Wollongong Street","Monday 9 August 2021","10:35am","11:00am","Casual Contacts","Casual Contacts ",-35.3249107,149.1798216
"","Fyshwick","Stockade Training Centre, 7 Kembla Street","Monday 9 August 2021","3:45pm","5:30pm","Casual Contacts","Casual Contacts ",-35.325788,149.1779729
"","Nicholls","Holy Spirit Catholic Primary School, 26 Kelleway Avenue(including Early Childhood Learning Centre)FAQs for schools","Tuesday 10 August 2021","8:00am","3:10pm","Casual Contacts","Casual Contacts ",-35.180284,149.1011436
"","Canberra City","Civic Square Post Office, Shop G14-16, Canberra Centre 148 Bunda Street","Tuesday 10 August 2021","9:30am","9:50am","Casual Contacts","Casual Contacts ",-35.2805531,149.1338806
"","Gungahlin","Kmart Gungahlin, 33 Hibberson Street","Tuesday 10 August 2021","3:00pm","4:00pm","Casual Contacts","Casual Contacts ",-35.1848509,149.1331888
"","Gungahlin","Big W Gungahlin, Gozzard Street","Tuesday 10 August 2021","3:45pm","4:30pm","Casual Contacts","Casual Contacts ",-35.1858957,149.1336469
"","Casey","Supabarn, 15 Kingsland Parade","Tuesday 10 August 2021","4:00pm","4:10pm","Casual Contacts","Casual Contacts ",-35.1741413,149.0960254
"","Casey","Sushi Island, 15/22 Kingsland Parade","Tuesday 10 August 2021","4:00pm","4:15pm","Casual Contacts","Casual Contacts ",-35.1744274,149.0956353
"","Canberra City","David Jones Canberra Centre, 148 Bunda Street","Tuesday 10 August 2021","5:15pm","6:00pm","Casual Contacts","Casual Contacts ",-35.2797785,149.1328569
"","Belconnen","TLE Electrical & Data supplies, 22-36 Oatley Court","Wednesday 11 August 2021","7:45am","8:30am","Casual Contacts","Casual Contacts ",-35.24167,149.058
"","Kingston","Abode Hotel, 14 Kennedy Street(Floors 1, 2 and 3)","Wednesday 11 August 2021","7:50am","11:59pm","Casual Contacts","Casual Contacts ",-35.31713,149.14108
"","Nicholls","Holy Spirit Catholic Primary School, 26 Kelleway Avenue(including Early Childhood Learning Centre)FAQs for schools","Wednesday 11 August 2021","8:00am","5:00pm","Casual Contacts","Casual Contacts ",-35.180284,149.1011436
"","Deakin","EQ Café and Lounge, 70 Kent Street","Wednesday 11 August 2021","6:30am","4:00pm","Casual Contacts","Casual Contacts ",-35.3204751,149.0973981
"","Deakin","EQ Bakehouse, 70 Kent Street","Wednesday 11 August 2021","7:00am","4:00pm","Casual Contacts","Casual Contacts ",-35.3204751,149.0973981
"","Casey","Sushi Island, 15/22 Kingsland Parade","Wednesday 11 August 2021","1:00pm","1:10pm","Casual Contacts","Casual Contacts ",-35.1744274,149.0956353
"","Casey","Supabarn Casey, 15 Kingsland Parade","Wednesday 11 August 2021","1:05pm","1:30pm","Casual Contacts","Casual Contacts ",-35.1741413,149.0960254
"","Charnwood","Woolworths Charnwood, 25-30 Charnwood Place","Wednesday 11 August 2021","6:30pm","7:10pm","Casual Contacts","Casual Contacts ",-35.2045295,149.0328578
"","Greenway","Southern Cross Club Stadium, 7 Pitman Street","Wednesday 11 August 2021","7:00pm","9:00pm","Casual Contacts","Casual Contacts ",-35.4155197,149.0634307
"","Kingston","Abode Hotel, 14 Kennedy Street(Floors 1, 2 and 3)","Thursday 12 August 2021","12:00am","7:00pm","Casual Contacts","Casual Contacts ",-35.31713,149.14108
"","Belconnen","TLE Electrical & Data supplies, 22-36 Oatley Court","Thursday 12 August 2021","7:30am","8:15am","Casual Contacts","Casual Contacts ",-35.24167,149.058
"","Belconnen","Coles Express Belconnen (Petrol Station), Lathlain Street and Wignall Place","Thursday 12 August 2021","7:50am","8:10am","Casual Contacts","Casual Contacts ",-35.242649,149.063986
"","Nicholls","Holy Spirit Catholic Primary School, 26 Kelleway Avenue(including Early Childhood Learning Centre)FAQs for schools","Thursday 12 August 2021","8:00am","3:10pm","Casual Contacts","Casual Contacts ",-35.180284,149.1011436
"","Deakin","EQ Bakehouse, 70 Kent Street","Thursday 12 August 2021","7:00am","10:00am","Casual Contacts","Casual Contacts ",-35.3204751,149.0973981
"","Amaroo","Coles Amaroo, Horse Park Drive","Friday 13 August 2021","11:30am","1pm","Casual Contacts","Casual Contacts ",-35.1646128,149.1317816
"","Amaroo","Liquorland Amaroo, Horse Park Drive","Friday 13 August 2021","12pm","12.30pm","Casual Contacts","Casual Contacts ",-35.1647474,149.1320463
"","Casey","7 eleven Casey, petrol station, 10 Kingsland Parade","Saturday 14 August 2021","7.30am","8.15am","Casual Contacts","Casual Contacts ",-35.175773,149.0957326
"","Majura Park","Bunnings Warehouse Canberra Airport, 971 Majura Rd, Majura Park","Monday 9 August 2021","9:00am","10.30am","Casual Contacts","Casual Contacts ",-35.293175,149.191257
"","Belconnen","Basketball ACT, Basketball & Sports Centre, 42 Oatley Ct, Belconnen","Tuesday 10 August 2021","12:00pm","3:00pm","Casual Contacts","Casual Contacts ",-35.2420057,149.0575179
"","Weston","Woolworths Weston Creek, Cooleman Court Shopping Centre, Brierly St, Weston","Friday 13 August 2021","6.20pm","7:00pm","Casual Contacts","Casual Contacts ",-35.340765,149.052681
"","Weston","ALDI Weston Creek, Cooleman Court Shopping Centre, Brierly St, Weston","Friday 13 August 2021","6:00pm","6.30pm","Casual Contacts","Casual Contacts ",-35.3414467,149.0525899
"","Belconnen","Basketball ACT, Basketball & Sports Centre, 42 Oatley Ct, Belconnen","Wednesday 11 August 2021","6.40am","9:00pm","Casual Contacts","Casual Contacts ",-35.2420057,149.0575179
"","Gungahlin","Big W, Gozzard St, Gungahlin","Thursday 12 August 2021","2.40pm","3:00pm","Casual Contacts","Casual Contacts ",-35.1858957,149.1336469
"","Gungahlin","St George Bank, 30 Hibberson St, Gungahlin","Thursday 12 August 2021","2.40pm","3.10pm","Casual Contacts","Casual Contacts ",-35.1855895,149.1341257
"","Gungahlin","Commonwealth Bank, 33 Hibberson St Shops 23, 25 Gungahlin Mall, Gungahlin","Thursday 12 August 2021","3:00pm","3.20pm","Casual Contacts","Casual Contacts ",-35.1853356,149.1346788
"","Gungahlin","Services Australia, 5 Fussell Lane, Gungahlin","Thursday 12 August 2021","3.10pm","3.30pm","Casual Contacts","Casual Contacts ",-35.1837955,149.1353828
"","Gungahlin","Vodafone, 18 Hibberson St, Gungahlin","Thursday 12 August 2021","3.20pm","3.45pm","Casual Contacts","Casual Contacts ",-35.1859633,149.1357952
"","Gungahlin","Reject Shop, Gungahlin Village, Corner Hibberson Street & Gungahlin Place Shop 2, 46 Hibberson St, Gungahlin","Thursday 12 August 2021","3.45pm","4.10pm","Casual Contacts","Casual Contacts ",-35.1863723,149.1359758
"","Gungahlin","Mr Sushi, Gungahlin","Thursday 12 August 2021","4:00pm","4.15pm","Casual Contacts","Casual Contacts ",-35.1848056,149.1344577
"","Dickson","Woolworths Dickson, 1 Dickson Place","Wednesday 11 August 2021","3:00pm","3.30pm","Casual Contacts","Casual Contacts ",-35.249974,149.1386251
"","Braddon","Crust Pizza, 28 Mort Street","Friday 13 August 2021","5.30pm","5.45pm","Casual Contacts","Casual Contacts ",-35.2746249,149.1314767
"","Canberra City","Coles Canberra Civic, Bunda Street & Petrie Street","Friday 13 August 2021","6.55pm","7.30pm","Casual Contacts","Casual Contacts ",-35.2784476,149.1343475
"","Braddon","Officeworks Braddon, 30 Mort Street","Monday 9 August 2021","3.15pm","4:00pm","Casual Contacts","Casual Contacts ",-35.2742758,149.1314656
"","Fyshwick","Seears Workwear, 60 Barrier Street","Tuesday 10 August 2021","4:00pm","4.15pm","Casual Contacts","Casual Contacts ",-35.3292705,149.1739102
"","Braddon","First Choice Liquor, 48 Mort Street","Tuesday 10 August 2021","4.25pm","4.45pm","Casual Contacts","Casual Contacts ",-35.2716667,149.1319444
"","Melba","Cafe Mame, 2/4-6 Melba Ct","Wednesday 11 August 2021","8.50am","9.15am","Casual Contacts","Casual Contacts ",-35.2082908,149.0485658
"","Melba","IGA Melba, 1/4-6 Melba Ct","Wednesday 11 August 2021","8.50am","9.15am","Casual Contacts","Casual Contacts ",-35.2081529,149.0486515
"","Braddon","Beyond Pharmacy, 4/18     Lonsdale Street","Thursday 12 August 2021","3.45pm","4:00pm","Casual Contacts","Casual Contacts ",-35.2736557,149.132945
"","Braddon","7-Eleven Braddon, 20 Mort Street","Thursday 12 August 2021","3.45pm","4:00pm","Casual Contacts","Casual Contacts ",-35.275691,149.1316658
"","Phillip","Elite Supplements, 13 Keltie St, Phillip","Wednesday 11 August 2021","11.15am","12.15pm","Casual Contacts","Casual Contacts ",-35.3464688,149.0866406
"","Phillip","Rebel Sport, SHOP LM2 Keltie St, Phillip","Wednesday 11 August 2021","11.15am","12.15pm","Casual Contacts","Casual Contacts ",-35.3468472,149.0860195
"","Belconnen","Westfield Aldi, Benjamin Way, Belconnen","Friday 13 August 2021","8.45am","9.20am","Casual Contacts","Casual Contacts ",-35.2382964,149.0638025
"","Belconnen","Westfield Woolworths, Benjamin Way, Belconnen","Friday 13 August 2021","9.05am","9.45am","Casual Contacts","Casual Contacts ",-35.2386596,149.0652762
"","Belconnen","Westfield Coles, Benjamin Way, Belconnen","Friday 13 August 2021","9.35am","10:00am","Casual Contacts","Casual Contacts ",-35.237949,149.064837
"","Belconnen","Westfield Post Office, Benjamin Way, Belconnen","Friday 13 August 2021","9.50am","10.15am","Casual Contacts","Casual Contacts ",-35.238743,149.0661145
"","Majura Park","Costco, 39-41 Mustang Ave, Majura Park","Friday 13 August 2021","12:00pm","1:00pm","Casual Contacts","Casual Contacts ",-35.2972375,149.1905839
"","Belconnen","Coles at Belconnen Westfield, Benjamin Way, Belconnen","Saturday 14 August 2021","9.20am","10:00am","Casual Contacts","Casual Contacts ",-35.237949,149.064837
"","Belconnen","Westfield Woolworths, Benjamin Way, Belconnen","Friday 13 August 2021","1.45pm","2.10pm","Casual Contacts","Casual Contacts ",-35.2386596,149.0652762
"","Belconnen","Westfield Aldi, Benjamin Way, Belconnen","Friday 13 August 2021","2:00pm","2.25pm","Casual Contacts","Casual Contacts ",-35.2382964,149.0638025
"","Belconnen","Westfield Coles, Benjamin Way, Belconnen","Friday 13 August 2021","2.15pm","2.45pm","Casual Contacts","Casual Contacts ",-35.237949,149.064837
"","Belconnen","Westfield Elite Supplements, Benjamin Way, Belconnen","Friday 13 August 2021","2.30pm","2.45pm","Casual Contacts","Casual Contacts ",-35.2383723,149.0649988
"","Tuggeranong","Southern Cross basketball stadium, 7 Pitman Street, Greenway","Wednesday 11 August 2021","8.30pm","10:00pm","Casual Contacts","Casual Contacts ",-35.4155197,149.0634307
"","Canberra City","Canberra Centre Subway & Food CourtCanberra Centre, 148 Bunda Street","Monday 9 August 2021","10:30am","12:00pm","Casual Contacts","Casual Contacts ",-35.2805658,149.1332051
"","Weston","Woolworths Weston Creek, Cooleman Court Shopping Centre, Brierly St, Weston","Friday 13 August 2021","6.20pm","7:00pm","Casual Contacts","Casual Contacts ",-35.340765,149.052681
"New","Lyneham","IGA Lyneham, 1 Wattle Place","Saturday 14 August 2021","4.15pm","5:00pm","Casual Contacts","Casual Contacts New",-35.2520717,149.1248594
"New","O'Connor","Kopiku, 1/5 Sargood Street","Friday 13 August 2021","9.45am","10.15am","Casual Contacts","Casual Contacts New",-35.2640694,149.1224283
"New","O'Connor","Capital Chemist, 9 Sargood Street","Friday 13 August 2021","9.35am","10:00am","Casual Contacts","Casual Contacts New",-35.2639132,149.122586
"New","Belconnen","Bing Lee, 10-12 Cohen Street","Tuesday 10 August 2021","12.50pm","1.15pm","Casual Contacts","Casual Contacts New",-35.240317,149.059827
"New","Manuka","Coles Supermarket, Manuka, Franklin Street &, Flinders Way","Wednesday 11 August 2021","6:00pm","6.45pm","Casual Contacts","Casual Contacts New",-35.32102,149.1342
"New","Charnwood","McDonalds, Cnr Charnwood Place & Lhotsky Place","Thursday 12 August 2021","8:00am","8.45am","Casual Contacts","Casual Contacts New",-35.20595,149.0343
"New","Lyneham","IGA Lyneham, 1 Wattle Place","Thursday 12 August 2021","3:00pm","3.45pm","Casual Contacts","Casual Contacts New",-35.2520717,149.1248594
"New","Belconnen","Xian Restaurant, 1/140 Emu Bank","Wednesday 11 August 2021","9.15pm","9.45pm","Casual Contacts","Casual Contacts New",-35.2361218,149.0698427
"New","Evatt","IGA Evatt, Heydon Place","Friday 13 August 2021","11.45am","8.15pm","Casual Contacts","Casual Contacts New",-35.208918,149.073362
"New","Gungahlin","Coles, Gungahlin Place","Sunday 15 August 2021","9.30am","10:00am","Casual Contacts","Casual Contacts New",-35.1862806,149.136017
"New","Gungahlin","Daily Market, 137/43 Hibberson Street","Sunday 15 August 2021","10:00am","10.30am","Casual Contacts","Casual Contacts New",-35.1854965,149.1363642
"New","Dickson","Woolworths Dickson, 1 Dickson Place","Saturday 14 August 2021","2.50pm","3.40pm","Casual Contacts","Casual Contacts New",-35.249974,149.1386251
"New","Dickson","The Source Bulk Foods, Shop 7/7/30 Dickson Place","Saturday 14 August 2021","2.45pm","3.10pm","Casual Contacts","Casual Contacts New",-35.2506133,149.1397664
"New","Dickson","About Health, 2/22-25 Dickson Place","Saturday 14 August 2021","2.40pm","5:00pm","Casual Contacts","Casual Contacts New",-35.2506067,149.1392435
"New","Dickson","Woolworths Dickson, 1 Dickson Place","Saturday 14 August 2021","11.20am","11.50am","Casual Contacts","Casual Contacts New",-35.249974,149.1386251
"New","Bonner","Woolworths Bonner, 61 Mabo Blvd","Saturday 14 August 2021","11.15am","12:00pm","Casual Contacts","Casual Contacts New",-35.1613889,149.1388889
"","Fyshwick","Ampol fuel, 289 Canberra Ave","Wednesday 11 August 2021","1:10pm","1.30pm","Casual Contacts","Casual Contacts ",-35.334177,149.1699433
"","Symonston","Mugga Site - Mugga Lane Resource Management Centre Waste Transfer Station, Mugga Ln","Monday 9 August 2021","10:00am","10:30am","Casual Contacts","Casual Contacts ",-35.3847055,149.1381353
"","Fyshwick","Canberra Outlet Centre","Sunday 8 August 2021","2:00pm","3:30pm","Monitoring","Monitoring ",-35.3366664,149.1784548
"","Aranda","Aranda Playing Fields, U14 girls AFL Ainslie Red vs Belconnen Black","Sunday 8 August 2021","9:00am","11:30am","Monitoring","Monitoring ",-35.25363,149.08
"","Casey","Casey Marketplace, 15 Kingsland Parade","Tuesday 10 August 2021","3:50pm","4:20pm","Monitoring","Monitoring ",-35.17447,149.0959449
"","Phillip","Woolworths Phillip, Westfield Woden, Hindmarsh Dr & Melrose Drives","Tuesday 10 August 2021","5:30pm","6:30pm","Monitoring","Monitoring ",-35.345964,149.084734
"","Kingston","Ground Floor only, Abode Hotel. 14 Kennedy St.","Wednesday 11 August 2021","7:50am","7:00pm","Monitoring","Monitoring ",-35.31713,149.14108
"","Kingston","Ochre Medical Centre, Level 1, Green Square Centre 62 Jardine Street","Wednesday 11 August 2021","4:30pm","4:40pm","Monitoring","Monitoring ",-35.3158701,149.1414428
"","Kingston","Ground Floor only, Abode Hotel. 14 Kennedy St.","Thursday 12 August 2021","7:50am","7:00pm","Monitoring","Monitoring ",-35.31713,149.14108
"","Tuggeranong","Bunnings Tuggeranong, Anketell St, Greenway","Wednesday 11 August 2021","10:15am","10:50am","Monitoring","Monitoring ",-35.4218444,149.0711101
"","Holder","Weston Creek Food Works, FoodWorks, 3, 40 Holder Pl, Holder","Friday 13 August 2021","5:00pm","5:10pm","Monitoring","Monitoring ",-35.3365862,149.0440993
"","Holt","Woolworths Kippax, 48 Hardwick Cres, Holt","Tuesday 10 August 2021","11:00am","11:15am","Monitoring","Monitoring ",-35.2228703,149.0201727
"","Holt","ALDI Kippax, 50-60 Hardwick Crescent, Kippax Pl, Holt","Thursday 12 August 2021","1:20pm","2:00pm","Monitoring","Monitoring ",-35.2210845,149.0192219
"","Hawker","Hawker Drive In Bottle Shop, Belconnen Way &, Springvale Dr, Hawker","Friday 13 August 2021","4:45pm","5:00pm","Monitoring","Monitoring ",-35.2426147,149.0449504
"","Bruce","CIT Bruce Campus: Entire Campus (refer to Close Contacts above if attended Building H), 35 Vowels Cres, Bruce","Tuesday 10 August 2021","8:45am","4:30pm","Monitoring","Monitoring ",-35.2481112,149.0946633
"","Bruce","CIT Bruce Campus: Entire Campus (refer to Close Contacts above if attended Building H), 35 Vowels Cres, Bruce","Wednesday 11 August 2021","12:30pm","10:30pm","Monitoring","Monitoring ",-35.2481112,149.0946633
"","Braddon","7-Eleven Braddon, 20 Mort Street","Wednesday 11 August 2021","5:00pm","5:15pm","Monitoring","Monitoring ",-35.275691,149.1316658
"","Belconnen","Westfield Belconnen, Benjamin Way, Belconnen","Friday 13 August 2021","8:45am","10:15am","Monitoring","Monitoring ",-35.2380765,149.0650422
"","Belconnen","Westfield Belconnen, Benjamin Way, Belconnen","Friday 13 August 2021","1:30pm","2:50pm","Monitoring","Monitoring ",-35.2380765,149.0650422
"","Canberra City","Canberra Centre, 148 Bunda Street","Monday 9 August 2021","10:30am","12:00pm","Monitoring","Monitoring ",-35.2802271,149.1332559
"New","Manuka","Coles Supermarket, Manuka, Franklin Street &, Flinders Way","Sunday 15 August 2021","11:15am","12:00pm","Monitoring","Monitoring New",-35.32102,149.1342
"New","Lyneham","Lyneham IGA, 1 Wattle Place","Friday 13 August 2021","11:00am","11:45am","Monitoring","Monitoring New",-35.2520717,149.1248594
"New","Belconnen","UCSSC Lake Ginninderra: Entire Campus excluding Gymnasium and Cafeteria/Canteen area. Refer to Close Contacts above if attended Gymnasium and Cafeteria/Canteen area, 2 Emu Bank","Monday 9 August 2021","10:00am","1:30pm","Monitoring","Monitoring New",-35.2387098,149.0736849
