"Status","Exposure.Location","Street","Suburb","Date","Arrival.Time","Departure.Time","Contact","lat","lon","doubles","moved"
"","City Family Practice","161 London Circuit","Canberra City","17/09/2021 - Friday","11:00am","12:30pm","Casual",-35.280178,149.13124,"",FALSE
"New","The Pharmacy on Petrie","148 Bunda Street","Canberra City","17/09/2021 - Friday","12:30pm","1:00pm","Monitor",-35.2788096,149.1335576,"<strong/>!Location has more than<br> one entry. Zoom in and search table!</strong/>",TRUE
"","Friendly Grocer Hughes","16 Hughes Place","Hughes","16/09/2021 - Thursday","10:00am","11:00am","Monitor",-35.3335607,149.0937634,"",FALSE
"","Friendly Grocer Hughes","16 Hughes Place","Hughes","16/09/2021 - Thursday","5:00pm","6:00pm","Monitor",-35.3335607,149.0937134,"",FALSE
"","Woolworths Kambah","2 Primmer Court","Kambah","16/09/2021 - Thursday","3:45pm","4:15pm","Monitor",-35.3801801,149.0572947,"",FALSE
"","Coles Wanniassa","12 Sangster Place","Wanniassa","16/09/2021 - Thursday","2:10pm","2:35pm","Casual",-35.3912889,149.0854972,"",FALSE
"","Coles Canberra Centre","Canberra Centre, 148 Bunda Street","Canberra City","16/09/2021 - Thursday","12:50pm","1:30pm","Monitor",-35.2802271,149.1333809,"",FALSE
"","Yarra Rossa Construction Site","51 Hicks Street","Red Hill","16/09/2021 - Thursday","7:00am","10:30am","Casual",-35.3380861,149.1284444,"",FALSE
"New","Watson Pharmacy","1 Watson Place","Watson","16/09/2021 - Thursday","10:30am","11:30am","Monitor",-35.239029,149.153282,"",FALSE
"","Hindmarsh Campbell - Seventy One","71 Constitution Avenue","Campbell","15/09/2021 - Wednesday","6:40am","5:00pm","Casual",-35.291031,149.144624,"",FALSE
"","United Petroleum Kambah","150 O'Halloran Circuit","Kambah","15/09/2021 - Wednesday","7:45pm","8:15pm","Monitor",-35.3926772,149.0689965,"",FALSE
"","Coles Express Gungahlin","1 Ginn Street","Gungahlin","15/09/2021 - Wednesday","6:20pm","7:00pm","Monitor",-35.1834139,149.1268238,"<strong/>!Location has more than<br> one entry. Zoom in and search table!</strong/>",TRUE
"","Coles Express Phillip","172 Melrose Drive","Phillip","15/09/2021 - Wednesday","7:20pm","8:00pm","Monitor",-35.3500068,149.0851387,"",FALSE
"","Supabarn Crace","56 Abena Avenue","Crace","15/09/2021 - Wednesday","12:45pm","3:30pm","Monitor",-35.2020605,149.1076007,"",FALSE
"","Coles Kaleen","1 Maribyrnong Avenue","Kaleen","15/09/2021 - Wednesday","4:00pm","4:40pm","Monitor",-35.2202787,149.1028728,"",FALSE
"","B&B Emporium","Kaleen Plaza, Georgina Crescent","Kaleen","15/09/2021 - Wednesday","4:10pm","4:45pm","Monitor",-35.2202159,149.1033936,"",FALSE
"","Woolworths Gungahlin","30/33 Hibberson Street","Gungahlin","15/09/2021 - Wednesday","6:25pm","7:15pm","Casual",-35.1846274,149.1340141,"",FALSE
"","Yarra Rossa Construction Site","51 Hicks Street","Red Hill","15/09/2021 - Wednesday","7:00am","4:00pm","Casual",-35.3380861,149.1283944,"",FALSE
"","Woolworths Kippax","Kippax Fair Shopping Centre, 26 Hardwick Crescent","Holt","15/09/2021 - Wednesday","12:50pm","1:30pm","Monitor",-35.2218013,149.0194113,"",FALSE
"","Caremore Pharmacy Kippax","8 Hardwick Crescent","Holt","15/09/2021 - Wednesday","1:00pm","1:40pm","Monitor",-35.221893,149.0195783,"",FALSE
"","Busy Bees at Crace","44 Hillcrest Street","Crace","15/09/2021 - Wednesday","8:45am","2:30pm","Casual",-35.2029196,149.1074833,"",FALSE
"","Supabarn Crace","56 Abena Avenue","Crace","15/09/2021 - Wednesday","12:45pm","1:30pm","Monitor",-35.2020605,149.1075507,"",FALSE
"New","Abode Woden","10 Bowes Street","Phillip","15/09/2021 - Wednesday","12:00am","11:59pm","Monitor",-35.3433861,149.0860964,"<strong/>!Location has more than<br> one entry. Zoom in and search table!</strong/>",TRUE
"New","Services Australia (Level 3 North Wing)","57 Athllon Drive","Greenway","15/09/2021 - Wednesday","8:20am","5:00pm","Casual",-35.421141,149.0655739,"<strong/>!Location has more than<br> one entry. Zoom in and search table!</strong/>",TRUE
"New","Services Australia Building","57 Athllon Drive","Greenway","15/09/2021 - Wednesday","8:20am","5:00pm","Monitor",-35.421141,149.0655239,"<strong/>!Location has more than<br> one entry. Zoom in and search table!</strong/>",TRUE
"New","Services Australia (Calypso Cafe)","57 Athllon Drive","Greenway","15/09/2021 - Wednesday","12:20pm","1:10pm","Casual",-35.421141,149.0654739,"<strong/>!Location has more than<br> one entry. Zoom in and search table!</strong/>",TRUE
"New","Kaleen Plaza Pharmacy","Shop 5, Kaleen Shopping Centre, Georgina Crescent","Kaleen","15/09/2021 - Wednesday","4:30pm","5:15pm","Monitor",-35.2202187,149.1036482,"",FALSE
"New","Coles Express Gungahlin","1 Ginn Street","Gungahlin","15/09/2021 - Wednesday","6:20pm","7:00pm","Monitor",-35.1834139,149.1267738,"<strong/>!Location has more than<br> one entry. Zoom in and search table!</strong/>",TRUE
"","Hindmarsh Campbell - Seventy One","71 Constitution Avenue","Campbell","14/09/2021 - Tuesday","6:40am","5:00pm","Casual",-35.291031,149.144574,"",FALSE
"","Oliphant Building, ANU","60 Mills Road","Acton","14/09/2021 - Tuesday","8:50am","1:15pm","Casual",-35.2839744,149.1131291,"",FALSE
"","IGA Melba","1/4-6 Melba Circuit","Melba","14/09/2021 - Tuesday","12:45pm","1:30pm","Monitor",-35.2081529,149.0486515,"",FALSE
"","Pharmacy Select Gungahlin","Gungahlin Village, 46 Hibberson Street","Gungahlin","14/09/2021 - Tuesday","6:00pm","6:30pm","Monitor",-35.185927,149.1363953,"",FALSE
"","Coles Gungahlin","Corner Hibberson Street and Gungahlin Place","Gungahlin","14/09/2021 - Tuesday","6:00pm","6:30pm","Monitor",-35.1862806,149.136042,"<strong/>!Location has more than<br> one entry. Zoom in and search table!</strong/>",TRUE
"","Kaleen Plaza","Georgina Crescent","Kaleen","14/09/2021 - Tuesday","3:50pm","4:30pm","Monitor",-35.2202159,149.1033436,"",FALSE
"","Two Before Ten Aranda","69 Bandjalong Crescent","Aranda","14/09/2021 - Tuesday","10:20am","11:00am","Monitor",-35.2564051,149.078815,"",FALSE
"","Metro Petroleum Mitchell","Lysaght Street","Mitchell","14/09/2021 - Tuesday","1:00pm","1:40pm","Monitor",-35.2154233,149.1425108,"",FALSE
"","IGA X-press East Row","22-58 East Row","Canberra City","14/09/2021 - Tuesday","7:15am","8:50am","Monitor",-35.2791945,149.1307937,"",FALSE
"","NewsXpress Wanniassa","Erindale Shopping Centre, 2 Denigan Street","Wanniassa","14/09/2021 - Tuesday","8:30am","10:00am","Monitor",-35.4040526,149.0986005,"",FALSE
"","Bus Route 51 Transport Canberra Code BUS456","O'Connor to Lyneham","Public Transport","14/09/2021 - Tuesday","7:15am","7:17am","Casual",-35.2809368,149.1301592,"",FALSE
"","Tuggeranong Discount Drug Store","17 Anketell Street","Greenway","14/09/2021 - Tuesday","6:05pm","6:40pm","Monitor",-35.4168087,149.0680445,"",FALSE
"","EG Fuel Conder","Tharwa Drive","Conder","14/09/2021 - Tuesday","9:20am","10:00am","Monitor",-35.4582538,149.0917291,"",FALSE
"","7-Eleven Casey","10 Kingsland Parade","Casey","14/09/2021 - Tuesday","8:30am","9:10am","Monitor",-35.175773,149.0957826,"",FALSE
"","IGA X-press East Row","22-58 East Row","Canberra City","14/09/2021 - Tuesday","7:00pm","8:00pm","Monitor",-35.2791945,149.1307437,"",FALSE
"","Yarra Rossa Construction Site","51 Hicks Street","Red Hill","14/09/2021 - Tuesday","7:00am","4:00pm","Casual",-35.3380861,149.1283444,"",FALSE
"","Woolworths Kippax","Kippax Fair Shopping Centre, 26 Hardwick Crescent","Holt","14/09/2021 - Tuesday","8:40pm","9:30pm","Monitor",-35.2218013,149.0193613,"",FALSE
"","Chemist Warehouse Fyshwick","17 Iron Knob Street","Fyshwick","14/09/2021 - Tuesday","2:00pm","2:40pm","Monitor",-35.3360642,149.17991,"",FALSE
"New","Woolworths Metro Cameron Avenue","1/6 Grazier Lane","Belconnen","14/09/2021 - Tuesday","1:30pm","1:40pm","Monitor",-35.2401725,149.0721313,"<strong/>!Location has more than<br> one entry. Zoom in and search table!</strong/>",TRUE
"New","Woolworths Metro Cameron Avenue","1/6 Grazier Lane","Belconnen","14/09/2021 - Tuesday","10:20am","11:00am","Monitor",-35.2401725,149.0720813,"<strong/>!Location has more than<br> one entry. Zoom in and search table!</strong/>",TRUE
"New","Abode Woden","10 Bowes Street","Phillip","14/09/2021 - Tuesday","12:00am","11:59pm","Monitor",-35.3433861,149.0860464,"<strong/>!Location has more than<br> one entry. Zoom in and search table!</strong/>",TRUE
"New","Services Australia (Level 3 North Wing)","57 Athllon Drive","Greenway","14/09/2021 - Tuesday","8:30am","1:30pm","Casual",-35.421141,149.0654239,"<strong/>!Location has more than<br> one entry. Zoom in and search table!</strong/>",TRUE
"New","Services Australia Building","57 Athllon Drive","Greenway","14/09/2021 - Tuesday","8:30am","1:30pm","Monitor",-35.421141,149.0653739,"<strong/>!Location has more than<br> one entry. Zoom in and search table!</strong/>",TRUE
"New","Coles Amaroo","Horse Park Drive","Amaroo","14/09/2021 - Tuesday","3:00pm","3:50pm","Monitor",-35.1646128,149.1318066,"<strong/>!Location has more than<br> one entry. Zoom in and search table!</strong/>",TRUE
"New","ALDI Amaroo","12 Pioneer Street","Amaroo","14/09/2021 - Tuesday","3:15pm","4:00pm","Monitor",-35.1652442,149.132432,"",FALSE
"New","Coles Gungahlin","Gungahlin Place","Gungahlin","14/09/2021 - Tuesday","3:30pm","4:20pm","Monitor",-35.1862806,149.135992,"<strong/>!Location has more than<br> one entry. Zoom in and search table!</strong/>",TRUE
"New","Chemist Warehouse Gungahlin","30 Hibberson Street","Gungahlin","14/09/2021 - Tuesday","3:50pm","4:30pm","Monitor",-35.1856574,149.1328737,"<strong/>!Location has more than<br> one entry. Zoom in and search table!</strong/>",TRUE
"New","ALDI Gungahlin","Hibberson Street","Gungahlin","14/09/2021 - Tuesday","3:50pm","4:35pm","Monitor",-35.1853494,149.1361628,"",FALSE
"New","ALDI Conder","9 Sidney Nolan Street","Conder","14/09/2021 - Tuesday","3:35pm","4:40pm","Casual",-35.4565418,149.093481,"<strong/>!Location has more than<br> one entry. Zoom in and search table!</strong/>",TRUE
"New","Lanyon Pharmacy","Lanyon Marketplace, 4 Sidney Nolan Street","Conder","14/09/2021 - Tuesday","5:20pm","6:00pm","Monitor",-35.4574587,149.0925805,"<strong/>!Location has more than<br> one entry. Zoom in and search table!</strong/>",TRUE
"New","Woolworths Conder","Lanyon Marketplace, 4 Sidney Nolan Street","Conder","14/09/2021 - Tuesday","4:15pm","5:00pm","Monitor",-35.457644,149.092561,"<strong/>!Location has more than<br> one entry. Zoom in and search table!</strong/>",TRUE
"New","BWS Conder","4 Sidney Nolan Drive","Conder","14/09/2021 - Tuesday","4:25pm","5:05pm","Monitor",-35.457682,149.0924747,"",FALSE
"","Kingslseys Chicken Erindale","5/20 Gartside Street","Wanniassa","13/09/2021 - Monday","6:10pm","7:00pm","Monitor",-35.4057929,149.0997253,"",FALSE
"","United Petroleum Kambah","150 O'Halloran Circuit","Kambah","13/09/2021 - Monday","1:30pm","2:30pm","Monitor",-35.3926772,149.0689465,"",FALSE
"","SupaBarn Express Watson","5 Watson Place","Watson","13/09/2021 - Monday","7:00pm","8:00pm","Monitor",-35.2388939,149.1535201,"",FALSE
"","Bus Route 42 Transport Canberra Code BUS710","Melba to Belconnen Interchange","Public Transport","13/09/2021 - Monday","7:19pm","7:32pm","Casual",NA,NA,"<strong/>!Location has more than<br> one entry. Zoom in and search table!</strong/>",TRUE
"","Bus Route 3 Transport Canberra Code BUS419","Belconnen Interchange to City Interchange","Public Transport","13/09/2021 - Monday","7:39pm","7:55pm","Casual",-35.2784467,149.1304294,"",FALSE
"","Light Rail Route 1 Transport Canberra Code LRV006","Alinga Street to Macarthur Avenue","Public Transport","13/09/2021 - Monday","8:00pm","8:04pm","Casual",-35.2782991,149.1284854,"",FALSE
"","Coles Belconnen","Westifield Belconnen, Benjamin Way","Belconnen","13/09/2021 - Monday","5:50pm","7:30pm","Casual",-35.237949,149.064837,"",FALSE
"","Birch Building #35 (Facilities Maintenance Workshop only), ANU","35 Science Road","Acton","13/09/2021 - Monday","7:50am","9:20am","Casual",NA,NA,"<strong/>!Location has more than<br> one entry. Zoom in and search table!</strong/>",TRUE
"","Birch Building #35 (Facilities Maintenance Workshop only), ANU","35 Science Road","Acton","13/09/2021 - Monday","10:30am","1:30pm","Casual",NA,NA,"<strong/>!Location has more than<br> one entry. Zoom in and search table!</strong/>",TRUE
"","Birch Building #35 (Facilities Maintenance Workshop only), ANU","35 Science Road","Acton","13/09/2021 - Monday","3:00pm","4:30pm","Casual",NA,NA,"<strong/>!Location has more than<br> one entry. Zoom in and search table!</strong/>",TRUE
"","Coles Express Manuka","Canberra Avenue and Flinders Way","Griffith","13/09/2021 - Monday","6:50am","7:30am","Monitor",-35.3200444,149.1344035,"",FALSE
"","Coles Manuka","Franklin Street and Flinders Way","Griffith","13/09/2021 - Monday","9:50am","9:55am","Monitor",-35.3210247,149.1343446,"",FALSE
"","Coles Express Manuka","Canberra Avenue and Flinders Way","Griffith","13/09/2021 - Monday","1:25pm","2:05pm","Monitor",-35.3200444,149.1343535,"",FALSE
"","BP Kingston","77 Canberra Avenue","Kingston","13/09/2021 - Monday","4:30pm","5:10pm","Monitor",-35.3199398,149.1389056,"",FALSE
"","Woolworths Erindale","50-68 Comrie Street","Wanniassa","13/09/2021 - Monday","2:10pm","3:00pm","Casual",-35.4035739,149.098752,"",FALSE
"","Computer Science and Information Technology Building #108 - Level 1 (Ground Floor) only","108 North Road","Acton","13/09/2021 - Monday","12:15pm","3:30pm","Casual",NA,NA,"<strong/>!Location has more than<br> one entry. Zoom in and search table!</strong/>",TRUE
"","ALDI Gungahlin","Hibberson Street","Gungahlin","13/09/2021 - Monday","12:30pm","1:25pm","Casual",-35.1853494,149.1362378,"",FALSE
"","Coles Amaroo","Horse Park Drive","Amaroo","13/09/2021 - Monday","12:50pm","1:40pm","Monitor",-35.1646128,149.1318566,"",FALSE
"","Pacifik Halal Meats","54-56/141 Ernest Cavanagh Street","Gungahlin","13/09/2021 - Monday","12:30pm","1:15pm","Monitor",-35.1848047,149.136513,"<strong/>!Location has more than<br> one entry. Zoom in and search table!</strong/>",TRUE
"","7-Eleven Kippax","88 Hardwick Crescent","Holt","13/09/2021 - Monday","11:00am","11:50am","Monitor",-35.2209147,149.0178943,"",FALSE
"","Charcoal Rooster","94 Lowanna Street","Braddon","13/09/2021 - Monday","9:00am","9:40am","Monitor",-35.2641258,149.1328287,"",FALSE
"","Bus Route 51 Transport Canberra Code BUS707","O'Connor to Dickson","Public Transport","13/09/2021 - Monday","12:44pm","1:02pm","Casual",-35.2809368,149.1301342,"",FALSE
"","Bus Route 51 Transport Canberra Code BUS499","City to O'Connor","Public Transport","13/09/2021 - Monday","2:34pm","2:40pm","Casual",-35.2809368,149.1300592,"",FALSE
"","Bus Route 51 Transport Canberra Code BUS641","O'Connor to Dickson","Public Transport","13/09/2021 - Monday","4:12pm","4:29pm","Casual",-35.2809368,149.1300342,"",FALSE
"","Bus Route 50 Transport Canberra Code BUS391","Dickson to Watson","Public Transport","13/09/2021 - Monday","8:38pm","8:43pm","Casual",-35.2809368,149.1299592,"",FALSE
"","Bus Route 9 Transport Canberra Code BUS391","Watson to Dickson Interchange","Public Transport","13/09/2021 - Monday","9:08pm","9:13pm","Casual",-35.250558,149.133789,"",FALSE
"","Bus Route 50 Transport Canberra Code BUS707","Dickson to O'Connor","Public Transport","13/09/2021 - Monday","9:16pm","9:23pm","Casual",-35.2809368,149.1299842,"",FALSE
"","Light Rail  Route 1 Transport Canberra Code LRV009","Dickson Interchange to Alinga Street","Public Transport","13/09/2021 - Monday","1:27pm","1:33pm","Casual",-35.250558,149.133739,"",FALSE
"","Light Rail  Route 1 Transport Canberra Code LRV014","Dickson Interchange to Ipima Street","Public Transport","13/09/2021 - Monday","4:54pm","4:57pm","Casual",-35.250558,149.133689,"",FALSE
"","Light Rail  Route 1 Transport Canberra Code LRV001","Ipima Street to Dickson Interchange","Public Transport","13/09/2021 - Monday","7:33pm","7:36pm","Casual",-35.266635,149.1348303,"",FALSE
"","Optimal Pharmacy Plus Jamison","Jamison Plaza, Bowman Street","Macqurie","13/09/2021 - Monday","12:10pm","1:10pm","Casual",-35.2527782,149.0717558,"",FALSE
"","Amcal+ Pharmacy Belconnen","Westfield Belconnen, Benjamin Way","Belconnen","13/09/2021 - Monday","12:40pm","5:30pm","Casual",-35.2464419,149.0676469,"",FALSE
"","Tuggeranong Discount Drug Store","17 Anketell Street","Greenway","13/09/2021 - Monday","2:50pm","3:30pm","Monitor",-35.4168087,149.0679945,"",FALSE
"","Woolworths Conder","Lanyon Marketplace, 4 Sidney Nolan Street","Conder","13/09/2021 - Monday","6:00pm","6:50pm","Monitor",-35.457644,149.092486,"",FALSE
"","Popes Electrical and Data Supplies Phillip","50-52 Colbee Court","Phillip","13/09/2021 - Monday","8:00am","9:00am","Casual",-35.3528956,149.0873239,"",FALSE
"","IGA X-press East Row","22-58 East Row","Canberra City","13/09/2021 - Monday","7:00pm","8:00pm","Monitor",-35.2791945,149.1307187,"",FALSE
"","Coles Canberra Centre","Canberra Centre, 148 Bunda Street","Canberra City","13/09/2021 - Monday","8:00pm","8:30pm","Casual",-35.2802271,149.1333309,"",FALSE
"","Coles Wanniassa","12 Sangster Place","Wanniassa","13/09/2021 - Monday","1:35pm","2:15pm","Casual",-35.3912889,149.0854472,"",FALSE
"","Donatello's","18 Sangster Place","Wanniassa","13/09/2021 - Monday","1:30pm","2:00pm","Monitor",-35.3908796,149.0855496,"",FALSE
"","ALDI Weston Creek","Brierly Street","Weston","13/09/2021 - Monday","2:50pm","4:00pm","Casual",-35.3414467,149.0525899,"",FALSE
"New","Woolworths Metro Cameron Avenue","1/6 Grazier Lane","Belconnen","13/09/2021 - Monday","4:30pm","5:15pm","Monitor",-35.2401725,149.0720313,"<strong/>!Location has more than<br> one entry. Zoom in and search table!</strong/>",TRUE
"New","7-Eleven Braddon","20 Mort Street","Braddon","13/09/2021 - Monday","12:10pm","12:50pm","Monitor",-35.275691,149.1317158,"<strong/>!Location has more than<br> one entry. Zoom in and search table!</strong/>",TRUE
"New","Abode Woden","10 Bowes Street","Phillip","13/09/2021 - Monday","12:00am","11:59pm","Monitor",-35.3433861,149.0859964,"<strong/>!Location has more than<br> one entry. Zoom in and search table!</strong/>",TRUE
"New","Woolworths Dickson","1 Dickson Place","Dickson","13/09/2021 - Monday","4:30pm","5:20pm","Casual",-35.249974,149.1386251,"",FALSE
"New","Coles Canberra Centre","Canberra Centre, 148 Bunda Street","Canberra City","13/09/2021 - Monday","2:10pm","2:50pm","Monitor",-35.2802271,149.1333059,"<strong/>!Location has more than<br> one entry. Zoom in and search table!</strong/>",TRUE
"New","Renaissance Manuka Worksite","Light Street","Griffith","13/09/2021 - Monday","7:00am","3:30pm","Monitor",-35.3215198,149.1361285,"<strong/>!Location has more than<br> one entry. Zoom in and search table!</strong/>",TRUE
"New","EG Fuel Conder","Tharwa Drive","Conder","13/09/2021 - Monday","3:10pm","3:45pm","Monitor",-35.4582538,149.0917291,"<strong/>!Location has more than<br> one entry. Zoom in and search table!</strong/>",TRUE
"New","IGA Banks","Pockett Avenue and Brockway Street","Banks","13/09/2021 - Monday","3:15pm","3:55pm","Monitor",-35.4725,149.0956056,"<strong/>!Location has more than<br> one entry. Zoom in and search table!</strong/>",TRUE
"","Bus Route 4 Transport Canberra Code BUS446","Woden Interchange to City Interchange","Public Transport","12/09/2021 - Sunday","12:28am","12:42am","Casual",-35.3444429,149.0872692,"",FALSE
"","Coles Express Gungahlin","1 Ginn Street","Gungahlin","12/09/2021 - Sunday","6:10pm","6:50pm","Monitor",-35.1834139,149.1267488,"",FALSE
"","Coles Kaleen","1 Maribyrnong Avenue","Kaleen","12/09/2021 - Sunday","5:30pm","6:15pm","Casual",-35.2202787,149.1028228,"",FALSE
"","Woolworths Erindale","50-68 Comrie Street","Wanniassa","12/09/2021 - Sunday","9:05am","10:10am","Casual",-35.4035739,149.098702,"",FALSE
"","Coles Canberra Centre","Canberra Centre, 148 Bunda Street","Canberra City","12/09/2021 - Sunday","8:40pm","9:00pm","Casual",-35.2802271,149.1333059,"",FALSE
"","Coles Express Belconnen","Lathlain Street and Wignall Place","Belconnen","12/09/2021 - Sunday","5:20pm","6:10pm","Monitor",-35.242649,149.064011,"",FALSE
"","Woolworths Charnwood","25-30 Charnwood Place","Charnwood","12/09/2021 - Sunday","12:30pm","1:20pm","Casual",-35.2045295,149.0329328,"",FALSE
"","Bus Route 28 Transport Canberra Code BUS569","Gungahlin to Casey Market Town","Public Transport","12/09/2021 - Sunday","4:12pm","4:33pm","Casual",-35.17447,149.0959699,"",FALSE
"","Bus Route 31 Transport Canberra Code BUS569","Belconnen (Cohen St) to City Interchange","Public Transport","12/09/2021 - Sunday","8:11pm","8:51pm","Casual",-35.2396469,149.0648732,"",FALSE
"","Bus Route 32 Transport Canberra Code BUS569","City Interchange to Belconnen (Cohen St)","Public Transport","12/09/2021 - Sunday","5:12pm","5:51pm","Casual",-35.2784467,149.1305294,"",FALSE
"","Bus Route 53 Transport Canberra Code BUS569","Dickson Shops to City Interchange","Public Transport","12/09/2021 - Sunday","9:18pm","9:46pm","Casual",-35.2784467,149.1304794,"",FALSE
"","Bus Route 8 Transport Canberra Code BUS569","Belconnen (Cohen St) to Gungahlin Interchange","Public Transport","12/09/2021 - Sunday","3:27pm","3:53pm","Casual",-35.2396469,149.0650232,"",FALSE
"","Bus Route 9 Transport Canberra Code BUS569","Belconnen (Cohen St) to Watson","Public Transport","12/09/2021 - Sunday","6:03pm","6:37pm","Casual",-35.2396469,149.0649732,"",FALSE
"","Bus Route 9 Transport Canberra Code BUS569","Watson to Belconnen (Cohen St)","Public Transport","12/09/2021 - Sunday","6:45pm","7:19pm","Casual",-35.2396469,149.0649232,"",FALSE
"","Liquorland Canberra Centre","Canberra Centre, 148 Bunda Street","Canberra City","12/09/2021 - Sunday","8:40pm","9:30pm","Casual",-35.2802271,149.1332809,"",FALSE
"","Woolworths Charnwood","25-30 Charnwood Place","Charnwood","12/09/2021 - Sunday","1:25pm","2:10pm","Monitor",-35.2045295,149.0328578,"",FALSE
"","Woolworths Dunlop","80 Lance Hill Avenue","Dunlop","12/09/2021 - Sunday","1:50pm","2:30pm","Monitor",-35.194468,149.0194685,"",FALSE
"","Bus Route 2 Transport Canberra Code BUS656","Westfield Belconnen Interchange to City Interchange","Public Transport","12/09/2021 - Sunday","7:27am","7:42am","Casual",-35.2784467,149.1304544,"",FALSE
"","Light Rail  Route 1 Transport Canberra Code LRV004","Alinga Street to Phillip Avenue","Public Transport","12/09/2021 - Sunday","5:30pm","5:39pm","Casual",-35.2782991,149.1285104,"",FALSE
"","Light Rail  Route 1 Transport Canberra Code LRV003","Phillip Avenue to Elouera Street","Public Transport","12/09/2021 - Sunday","6:44pm","6:52pm","Casual",-35.2473185,149.1540083,"",FALSE
"","Chemist Warehouse Gungahlin","30 Hibberson Street","Gungahlin","12/09/2021 - Sunday","1:50pm","2:30pm","Monitor",-35.1856574,149.1328237,"<strong/>!Location has more than<br> one entry. Zoom in and search table!</strong/>",TRUE
"","Woolworths Gungahlin","30/33 Hibberson Street","Gungahlin","12/09/2021 - Sunday","2:00pm","2:30pm","Monitor",-35.1846274,149.1339641,"",FALSE
"","BWS Mawson","Mawson Place","Mawson","12/09/2021 - Sunday","2:10pm","2:50pm","Monitor",-35.3661405,149.0944118,"",FALSE
"","Woolworths Mawson","15 Mawson Place","Mawson","12/09/2021 - Sunday","1:40pm","2:40pm","Casual",-35.3661449,149.0947446,"",FALSE
"","Priceline Pharmacy Amaroo","6 Pioneer Street","Amaroo","12/09/2021 - Sunday","11:15am","12:00pm","Monitor",-35.164779,149.1324158,"",FALSE
"","Capital Chemist Charnwood","Charnwood Shopping Centre, Lhotsky Street","Charnwood","12/09/2021 - Sunday","1:30pm","2:15pm","Monitor",-35.2045044,149.033648,"",FALSE
"","Tuggeranong Discount Drug Store","17 Anketell Street","Greenway","12/09/2021 - Sunday","3:15pm","3:55pm","Monitor",-35.4168087,149.0679445,"",FALSE
"","Coles Manuka","Franklin Street and Flinders Way","Griffith","12/09/2021 - Sunday","2:20pm","3:10pm","Monitor",-35.3210247,149.1342946,"",FALSE
"","Narrabundah Friendly Grocer","6 Iluka Street","Narrabundah","12/09/2021 - Sunday","6:00pm","6:45pm","Casual",-35.3325783,149.1540484,"",FALSE
"","Narrabundah Friendly Grocer","6 Iluka Street","Narrabundah","12/09/2021 - Sunday","7:45pm","8:30pm","Casual",-35.3325783,149.1539984,"",FALSE
"","SupaExpress Kaleen","8 Gwydir Square, Maribyrnong Avenue","Kaleen","12/09/2021 - Sunday","1:30pm","2:30pm","Casual",-35.2337993,149.1029054,"",FALSE
"","Woolworths Gungahlin","30/33 Hibberson Street","Gungahlin","12/09/2021 - Sunday","3:35pm","4:15pm","Monitor",-35.1846274,149.1339391,"",FALSE
"","Ms Ba Co Majura Park","Majura Park Shopping Centre, 18/16 Spitfire Avenue","Canberra Airport","12/09/2021 - Sunday","3:40pm","4:20pm","Monitor",-35.3001906,149.1904008,"",FALSE
"","Costco Canberra","39-41 Mustang Avenue","Canberra Airport","12/09/2021 - Sunday","1:45pm","3:15pm","Casual",-35.2972375,149.1905839,"",FALSE
"","Woolworths Majura Park","Majura Park Shopping Centre, 18/16 Spitfire Avenue","Canberra Airport","12/09/2021 - Sunday","2:45pm","3:50pm","Casual",-35.3001906,149.1903508,"",FALSE
"","Jim Murphy's Airport Cellars","7 Mustang Avenue","Canberra Airport","12/09/2021 - Sunday","3:15pm","4:15pm","Casual",-35.295124,149.191092,"",FALSE
"","IGA X-press East Row","22-58 East Row","Canberra City","12/09/2021 - Sunday","7:00pm","8:00pm","Monitor",-35.2791945,149.1306437,"",FALSE
"New","Woolworths Metro Cameron Avenue","1/6 Grazier Lane","Belconnen","12/09/2021 - Sunday","8:40pm","9:20pm","Monitor",-35.2401725,149.0719813,"<strong/>!Location has more than<br> one entry. Zoom in and search table!</strong/>",TRUE
"New","Abode Woden","10 Bowes Street","Phillip","12/09/2021 - Sunday","12:00am","11:59pm","Monitor",-35.3433861,149.0859464,"<strong/>!Location has more than<br> one entry. Zoom in and search table!</strong/>",TRUE
"","Bus Route 4 Transport Canberra Code BUS671","City Interchange to Woden Interchange","Public Transport","11/09/2021 - Saturday","10:27am","10:41am","Casual",-35.2784467,149.1303294,"",FALSE
"","Coles Express Manuka","Canberra Avenue and Flinders Way","Griffith","11/09/2021 - Saturday","6:52am","7:00am","Monitor",-35.3200444,149.1343035,"",FALSE
"","Coles Manuka","Franklin Street and Flinders Way","Griffith","11/09/2021 - Saturday","9:25am","10:05am","Monitor",-35.3210247,149.1342446,"",FALSE
"","Woolworths Dickson","1 Dickson Place","Dickson","11/09/2021 - Saturday","11:50am","12:40pm","Monitor",-35.249974,149.1386501,"",FALSE
"","Coffee Guru Casey","Casey Market, 15 Kingsland Parade","Casey","11/09/2021 - Saturday","2:05pm","2:45pm","Monitor",-35.1745939,149.0953225,"",FALSE
"","Casey Market Town","15 Kingsland Parade","Casey","11/09/2021 - Saturday","2:00pm","2:50pm","Monitor",-35.17447,149.0959699,"<strong/>!Location has more than<br> one entry. Zoom in and search table!</strong/>",TRUE
"","Bus Route 10 Transport Canberra Code BUS561","City West to Denman Prospect","Public Transport","11/09/2021 - Saturday","5:23pm","5:53pm","Casual",-35.279095,149.125559,"",FALSE
"","Bus Route 10 Transport Canberra Code BUS561","Denman Prospect to City West","Public Transport","11/09/2021 - Saturday","6:03pm","6:28pm","Casual",-35.2784467,149.1304044,"",FALSE
"","Bus Route 10 Transport Canberra Code BUS561","City West to Denman Prospect","Public Transport","11/09/2021 - Saturday","6:53pm","7:23pm","Casual",-35.279095,149.125509,"",FALSE
"","Bus Route 10 Transport Canberra Code BUS561","Denman Prospect to City West","Public Transport","11/09/2021 - Saturday","7:33pm","7:58pm","Casual",-35.2784467,149.1303794,"",FALSE
"","Bus Route 5 Transport Canberra Code BUS561","City West to Lanyon Marketplace","Public Transport","11/09/2021 - Saturday","11:07pm","11:54pm","Casual",-35.2784467,149.1302794,"",FALSE
"","Bus Route 6 Transport Canberra Code BUS561","Woden Interchange to City West","Public Transport","11/09/2021 - Saturday","4:23pm","5:07pm","Casual",-35.3444429,149.0872942,"",FALSE
"","Bus Route 63 Transport Canberra Code BUS561","Woden Interchange to Cooleman Court","Public Transport","11/09/2021 - Saturday","9:35pm","9:59pm","Casual",-35.3444429,149.0872192,"",FALSE
"","Bus Route 66 Transport Canberra Code BUS561","Cooleman Court to Woden Interchange","Public Transport","11/09/2021 - Saturday","10:04pm","10:47pm","Casual",-35.3444429,149.0871942,"",FALSE
"","Bus Route 7 Transport Canberra Code BUS561","City West to Weston Creek","Public Transport","11/09/2021 - Saturday","8:07pm","8:35pm","Casual",-35.2784467,149.1303544,"",FALSE
"","Coles Amaroo","Horse Park Drive","Amaroo","11/09/2021 - Saturday","1:25pm","2:00pm","Monitor",-35.1646128,149.1317566,"",FALSE
"","Grill'd Belconnen","Westfield Belconnen, Benjamin Way","Belconnen","11/09/2021 - Saturday","5:20pm","6:15pm","Casual",-35.2380765,149.0650672,"",FALSE
"","7-Eleven Casey","10 Kingsland Parade","Casey","11/09/2021 - Saturday","3:35pm","4:15pm","Monitor",-35.175773,149.0957576,"",FALSE
"","B&B Emporium Casey","Casey Market Town, 15 Kingsland Parade","Casey","11/09/2021 - Saturday","2:05pm","2:45pm","Monitor",-35.17447,149.0959199,"",FALSE
"","Coles Canberra Centre","Canberra Centre, 148 Bunda Street","Canberra City","11/09/2021 - Saturday","4:30pm","5:50pm","Casual",-35.2802271,149.1332309,"",FALSE
"","ALDI Amaroo","12 Pioneer Street","Amaroo","11/09/2021 - Saturday","10:30am","11:00am","Casual",-35.1652442,149.132482,"",FALSE
"","Amaroo Village Shopping Centre","Horsepark Drive","Amaroo","11/09/2021 - Saturday","1:25pm","2:00pm","Monitor",-35.1646128,149.1317566,"<strong/>!Location has more than<br> one entry. Zoom in and search table!</strong/>",TRUE
"","BWS Wanniassa","12 Sangster Place","Wanniassa","11/09/2021 - Saturday","1:50pm","2:40pm","Monitor",-35.3909032,149.0855739,"",FALSE
"","Capital Chemist Mawson","Southlands Shopping Centre, 2 Birmingham Road","Mawson","11/09/2021 - Saturday","12:35pm","1:45pm","Casual",-35.365432,149.0942628,"",FALSE
"","Coles Amaroo","Horse Park Drive","Amaroo","11/09/2021 - Saturday","1:20pm","1:40pm","Monitor",-35.1646128,149.1318816,"",FALSE
"","Coles Amaroo","Horse Park Drive","Amaroo","11/09/2021 - Saturday","10:50am","11:05am","Monitor",-35.1646128,149.1318066,"",FALSE
"","Woolworths Mawson","15 Mawson Place","Mawson","11/09/2021 - Saturday","5:15pm","6:15pm","Casual",-35.3661449,149.0947696,"",FALSE
"","7-Eleven Mawson","1 Mawson Place","Mawson","11/09/2021 - Saturday","12:25pm","1:30pm","Casual",-35.365172,149.0936873,"",FALSE
"","Narrabundah Friendly Grocer","6 Iluka Street","Narrabundah","11/09/2021 - Saturday","9:05am","9:50am","Monitor",-35.3325783,149.1540734,"",FALSE
"","Woolworths Mawson","15 Mawson Place","Mawson","11/09/2021 - Saturday","12:50pm","1:40pm","Monitor",-35.3661449,149.0946696,"",FALSE
"","Woolworths Metro Hawker","Springvale Drive","Hawker","11/09/2021 - Saturday","7:20pm","8:10pm","Monitor",-35.2433647,149.0441742,"",FALSE
"","Woolworths Woden","Westfield Woden, Keltie Street","Phillip","11/09/2021 - Saturday","3:30pm","5:00pm","Casual",-35.345964,149.084759,"",FALSE
"","Tuggeranong Discount Drug Store","17 Anketell Street","Greenway","11/09/2021 - Saturday","3:10pm","3:50pm","Monitor",-35.4168087,149.0678945,"",FALSE
"","The Pharmacy on Petrie","148 Bunda Street","Canberra City","11/09/2021 - Saturday","4:30pm","6:00pm","Monitor",-35.2788096,149.1335076,"<strong/>!Location has more than<br> one entry. Zoom in and search table!</strong/>",TRUE
"","Narrabundah Friendly Grocer","6 Iluka Street","Narrabundah","11/09/2021 - Saturday","3:10pm","4:00pm","Casual",-35.3325783,149.1539484,"",FALSE
"","Narrabundah Friendly Grocer","6 Iluka Street","Narrabundah","11/09/2021 - Saturday","6:00pm","6:45pm","Casual",-35.3325783,149.1538984,"",FALSE
"","Lucky's Speed Shop","4/9 Yallourn Street","Fyshwick","11/09/2021 - Saturday","12:00pm","2:30pm","Close",-35.3325915,149.1693528,"",FALSE
"","EG Fuel Conder","Tharwa Drive","Conder","11/09/2021 - Saturday","11:50am","12:30pm","Monitor",-35.4582538,149.0916791,"",FALSE
"","Woolworths Conder","Lanyon Marketplace, 4 Sidney Nolan Street","Conder","11/09/2021 - Saturday","2:20pm","3:10pm","Casual",-35.457644,149.092461,"",FALSE
"","Fresh Seafood  Canberra, Casey","15 Kingsland Parade","Casey","11/09/2021 - Saturday","1:20pm","2:20pm","Monitor",-35.1743655,149.0953865,"",FALSE
"","Sea Harvest Belconnen","10 Lathlain Street","Belconnen","11/09/2021 - Saturday","1:50pm","2:50pm","Casual",-35.2458789,149.0654736,"",FALSE
"","Market Meats Belconnen","Belconnen Fresh Food Markets, Lathlain Street","Belconnen","11/09/2021 - Saturday","2:10pm","3:10pm","Casual",-35.2452107,149.0654823,"",FALSE
"","ALDI Belconnen","Westfield Belconnen, Benjamin Way","Belconnen","11/09/2021 - Saturday","3:00pm","3:55pm","Casual",-35.2380765,149.0650422,"",FALSE
"","Oporto Phillip","82 Parramatta Street","Phillip","11/09/2021 - Saturday","8:35pm","9:20pm","Monitor",-35.35521,149.0903394,"",FALSE
"","Supabarn Casey","15 Kingsland Parade","Casey","11/09/2021 - Saturday","5:45pm","7:00pm","Casual",-35.1741413,149.0960254,"",FALSE
"","Renaissance Manuka Worksite","Light Street","Griffith","11/09/2021 - Saturday","7:20am","1:00pm","Casual",-35.3215198,149.1360785,"<strong/>!Location has more than<br> one entry. Zoom in and search table!</strong/>",TRUE
"New","BWS Republic Belconnen","1 Edmondstone Place","Belconnen","11/09/2021 - Saturday","1:40pm","2:20pm","Monitor",-35.2408989,149.0712282,"",FALSE
"New","Abode Woden","10 Bowes Street","Phillip","11/09/2021 - Saturday","12:00am","11:59pm","Monitor",-35.3433861,149.0858964,"<strong/>!Location has more than<br> one entry. Zoom in and search table!</strong/>",TRUE
"New","Supabarn Casey","15 Kingsland Parade","Casey","11/09/2021 - Saturday","8:45pm","9:20pm","Monitor",-35.17447,149.0959199,"<strong/>!Location has more than<br> one entry. Zoom in and search table!</strong/>",TRUE
"New","Colbee Court Chemist","33 Colbee Court","Phillip","11/09/2021 - Saturday","3:05pm","3:50pm","Monitor",-35.3519501,149.0897591,"",FALSE
"","IGA X-press East Row","22-58 East Row","Canberra City","10/09/2021 - Friday","7:00pm","8:00pm","Monitor",-35.2791945,149.1306687,"",FALSE
"","Two Before Ten Aranda","69 Bandjalong Crescent","Aranda","10/09/2021 - Friday","10:25am","11:10am","Monitor",-35.2564051,149.078765,"",FALSE
"","BWS Erindale","50-68 Comrie Street","Wanniassa","10/09/2021 - Friday","10:25am","11:05am","Monitor",-35.4037618,149.0986845,"",FALSE
"","Blackjack Kiosk","50-68 Comrie Street","Wanniassa","10/09/2021 - Friday","10:30am","11:10am","Monitor",-35.4040236,149.0984006,"",FALSE
"","ACT Law Courts - Bail Office","4-6 Knowles Place","Canberra City","10/09/2021 - Friday","3:35pm","4:25pm","Casual",-35.2803475,149.1270913,"",FALSE
"","ACT Law Courts - Ground level Foyer","4-6 Knowles Place","Canberra City","10/09/2021 - Friday","2:10pm","2:45pm","Casual",-35.2803475,149.1272413,"",FALSE
"","ACT Law Courts - Magistrates Court (Level 1 Foyer outside rooms 1 and 2 only)","4-6 Knowles Place","Canberra City","10/09/2021 - Friday","2:10pm","3:30pm","Casual",-35.2803475,149.1271913,"",FALSE
"","ACT Law Courts - Magistrates Court (Room 2 only)","4-6 Knowles Place","Canberra City","10/09/2021 - Friday","2:55pm","4:10pm","Casual",-35.2803475,149.1271413,"",FALSE
"","Coles Express Belconnen","Lathlain Street and Wignall Place","Belconnen","10/09/2021 - Friday","8:05pm","9:00pm","Casual",-35.242649,149.063961,"",FALSE
"","Woolworths Metro Cameron Avenue","1/6 Grazier Lane","Belconnen","10/09/2021 - Friday","8:20pm","9:00pm","Monitor",-35.2401725,149.0720313,"<strong/>!Location has more than<br> one entry. Zoom in and search table!</strong/>",TRUE
"","Bus Route 20 Transport Canberra Code BUS403","Bonner to Gungahlin Interchange","Public Transport","10/09/2021 - Friday","6:59am","7:10am","Casual",-35.2809368,149.1299092,"",FALSE
"","Bus Route 19 Transport Canberra Code BUS598","Gungahlin Interchange to Bonner","Public Transport","10/09/2021 - Friday","4:57pm","5:11pm","Casual",-35.16413,149.13322,"",FALSE
"","Light Rail  Route 1 Transport Canberra Code LRV007","Gungahlin Place to Alinga Street","Public Transport","10/09/2021 - Friday","7:15am","7:39am","Casual",-35.2782991,149.1284354,"",FALSE
"","Light Rail  Route 1 Transport Canberra Code LRV013","Alinga Street to Gungahlin Place","Public Transport","10/09/2021 - Friday","4:18pm","4:43pm","Casual",-35.2782991,149.1284104,"",FALSE
"","Mint Rd","4/59 Boolimba Crescent","Narrabundah","10/09/2021 - Friday","8:25am","9:05am","Monitor",-35.3328842,149.1538066,"",FALSE
"","Narrabundah Friendly Grocer","6 Iluka Street","Narrabundah","10/09/2021 - Friday","8:30am","9:10am","Monitor",-35.3325783,149.1540234,"",FALSE
"","Winnunga Nimmityjah Aboriginal Health Service - Main Reception in the new building","63 Boolimba Crescent","Narrabundah","10/09/2021 - Friday","8:30am","4:00pm","Casual",-35.3332292,149.1556693,"",FALSE
"","Chargrilld Eatery and Pizza Bar","1/59 Cameron Avenue","Belconnen","10/09/2021 - Friday","11:40am","12:20pm","Monitor",-35.2409706,149.0709715,"",FALSE
"","Molonglo Dental Surgery","5/110 Woodberry Avenue","Coombs","10/09/2021 - Friday","9:50am","10:45am","Casual",-35.3196945,149.0400585,"",FALSE
"","Pizza Hut Kippax","102 Hardwick Crescent","Holt","10/09/2021 - Friday","12:00pm","12:40pm","Monitor",-35.2212396,149.0181561,"",FALSE
"","Wokitup! Amaroo","11 Pioneer Street","Amaroo","10/09/2021 - Friday","5:50pm","6:00pm","Monitor",-35.1646953,149.1316572,"",FALSE
"","Woolworths Erindale","50-68 Comrie Street","Wanniassa","10/09/2021 - Friday","4:40pm","5:20pm","Monitor",-35.4035739,149.098777,"",FALSE
"","Woolworths Mawson","15 Mawson Place","Mawson","10/09/2021 - Friday","3:15pm","4:00pm","Casual",-35.3661449,149.0946946,"",FALSE
"","BWS Woden","Westfield Woden, Keltie Street","Phillip","10/09/2021 - Friday","3:10pm","3:50pm","Monitor",-35.3459559,149.0851749,"",FALSE
"","Liquorland Woden","Westfield Woden, Keltie Street","Phillip","10/09/2021 - Friday","3:10pm","3:50pm","Monitor",-35.3463199,149.0860576,"",FALSE
"","Woolworths Woden","Westfield Woden, Keltie Street","Phillip","10/09/2021 - Friday","2:45pm","3:45pm","Casual",-35.345964,149.084709,"",FALSE
"","Department of Education, Skills and Employment, Level 7","140-180 City Walk, Garema Court","Canberra City","10/09/2021 - Friday","8:40am","4:45pm","Casual",-35.2789018,149.1313084,"",FALSE
"","Department of Education, Skills and Employment Building","140-180 City Walk, Garema Court","Canberra City","10/09/2021 - Friday","8:40am","4:45pm","Monitor",-35.2783596,149.1320553,"",FALSE
"","Tuggeranong Discount Drug Store","17 Anketell Street","Greenway","10/09/2021 - Friday","2:50pm","3:45pm","Monitor",-35.4168087,149.0678445,"",FALSE
"","Narrabundah Friendly Grocer","6 Iluka Street","Narrabundah","10/09/2021 - Friday","7:20pm","8:10pm","Monitor",-35.3325783,149.1538484,"",FALSE
"","Moon Restaurant","41 Chandler Street","Belconnen","10/09/2021 - Friday","12:00pm","12:50pm","Casual",-35.2394623,149.0709502,"",FALSE
"New","Woolworths Conder","Lanyon Marketplace, 4 Sidney Nolan Street","Conder","10/09/2021 - Friday","6:10pm","6:50pm","Monitor",-35.457644,149.092511,"<strong/>!Location has more than<br> one entry. Zoom in and search table!</strong/>",TRUE
"New","7-Eleven Braddon","20 Mort Street","Braddon","10/09/2021 - Friday","2:30pm","6:30pm","Monitor",-35.275691,149.1316658,"<strong/>!Location has more than<br> one entry. Zoom in and search table!</strong/>",TRUE
"New","Woolworths Metro Cameron Avenue","1/6 Grazier Lane","Belconnen","10/09/2021 - Friday","2:00pm","2:45pm","Monitor",-35.2401725,149.0719313,"<strong/>!Location has more than<br> one entry. Zoom in and search table!</strong/>",TRUE
"New","EG Fuel Conder","Tharwa Drive","Conder","10/09/2021 - Friday","11:00pm","11:40pm","Monitor",-35.4582538,149.0916791,"<strong/>!Location has more than<br> one entry. Zoom in and search table!</strong/>",TRUE
"New","Abode Woden","10 Bowes Street","Phillip","10/09/2021 - Friday","12:00am","11:59pm","Monitor",-35.3433861,149.0858464,"<strong/>!Location has more than<br> one entry. Zoom in and search table!</strong/>",TRUE
"New","IGA Banks","Pockett Avenue and Brockway Street","Banks","10/09/2021 - Friday","2:25pm","3:00pm","Monitor",-35.4725,149.0955556,"<strong/>!Location has more than<br> one entry. Zoom in and search table!</strong/>",TRUE
"New","Coles Canberra Centre","Canberra Centre, 148 Bunda Street","Canberra City","10/09/2021 - Friday","7:45am","8:20am","Monitor",-35.2802271,149.1332559,"<strong/>!Location has more than<br> one entry. Zoom in and search table!</strong/>",TRUE
"New","Coles Canberra Centre","Canberra Centre, 148 Bunda Street","Canberra City","10/09/2021 - Friday","12:00pm","12:40pm","Monitor",-35.2802271,149.1332059,"<strong/>!Location has more than<br> one entry. Zoom in and search table!</strong/>",TRUE
"New","Pacifik Halal Meats","54-56/141 Ernest Cavanagh","Gungahlin","10/09/2021 - Friday","5:05pm","6:15pm","Casual",-35.1848047,149.136463,"<strong/>!Location has more than<br> one entry. Zoom in and search table!</strong/>",TRUE
"New","Cellarbrations Erindale","1/50 Denigan Street","Wanniassa","10/09/2021 - Friday","4:00pm","4:35pm","Monitor",-35.4038487,149.0964993,"",FALSE
"","Dina's Liquor","7 East Row Street","Canberra City","09/09/2021 - Thursday","10:00pm","11:00pm","Monitor",-35.2794041,149.1304137,"",FALSE
"","EG Fuel Dickson","1 Cape Street","Dickson","09/09/2021 - Thursday","12:05pm","12:45pm","Monitor",-35.2511626,149.1373655,"",FALSE
"","Woolworths Metro Cameron Avenue","1/6 Grazier Lane","Belconnen","09/09/2021 - Thursday","9:00pm","9:40pm","Monitor",-35.2401725,149.0719813,"<strong/>!Location has more than<br> one entry. Zoom in and search table!</strong/>",TRUE
"","Bus Route 3 Transport Canberra Code BUS702","City Interchange to Westfield Belconnen Interchange","Public Transport","09/09/2021 - Thursday","8:24am","8:40am","Casual",-35.2784467,149.1303044,"",FALSE
"","Bus Route 45 Transport Canberra Code BUS506","Westfield Belconnen Interchange to Hawker","Public Transport","09/09/2021 - Thursday","8:53am","9:01am","Casual",-35.2380765,149.0650172,"",FALSE
"","Coffee Guru Casey","Casey Marketown, 15 Kingsland Parade","Casey","09/09/2021 - Thursday","7:30am","8:10am","Monitor",-35.1745939,149.0953475,"",FALSE
"","Elixir Cafe","Queen Elizabeth Terrace","Parkes","09/09/2021 - Thursday","1:00pm","1:40pm","Monitor",-35.2974191,149.1352154,"",FALSE
"","Woolworths Erindale","Erindale Shopping Centre, 50-68 Comrie Street","Wanniassa","09/09/2021 - Thursday","8:10am","9:00am","Monitor",-35.4035739,149.098727,"",FALSE
"","Mint Rd","4/59 Boolimba Crescent","Narrabundah","09/09/2021 - Thursday","8:30am","9:10am","Monitor",-35.3328842,149.1537566,"",FALSE
"","ALDI Amaroo","12 Pioneer Street","Amaroo","09/09/2021 - Thursday","8:30am","8:45am","Monitor",-35.1652442,149.132457,"",FALSE
"","Coles Amaroo","Horse Park Drive","Amaroo","09/09/2021 - Thursday","8:15am","8:30am","Monitor",-35.1646128,149.1317066,"",FALSE
"","Metro petroleum Fyshwick","15 Barrier Street","Fyshwick","09/09/2021 - Thursday","8:00am","8:40am","Monitor",-35.3291866,149.1728096,"",FALSE
"","Molonglo Dental Surgery","5/110 Woodberry Avenue","Coombs","09/09/2021 - Thursday","9:20am","4:00pm","Casual",-35.3196945,149.0400085,"",FALSE
"","Narrabundah Pharmacy and Post Office","18 Iluka Street","Narrabundah","09/09/2021 - Thursday","8:30am","9:15am","Monitor",-35.3328701,149.1538591,"",FALSE
"","Woolworths Mawson","15 Mawson Place","Mawson","09/09/2021 - Thursday","6:15pm","7:20pm","Casual",-35.3661449,149.0946196,"",FALSE
"","Coles Manuka","Franklin Street and Flinders Way","Griffith","09/09/2021 - Thursday","5:22pm","6:10pm","Casual",-35.3210247,149.1341946,"",FALSE
"","Boss Projects Group, Gungahlin Village Site","Gungahlin Place and Hibberson Street","Gungahlin","09/09/2021 - Thursday","9:15am","4:00pm","Casual",-35.1868916,149.1367894,"",FALSE
"New","Woolworths Conder","Lanyon Marketplace, 4 Sidney Nolan Street","Conder","09/09/2021 - Thursday","2:30pm","3:20pm","Casual",-35.457644,149.092461,"<strong/>!Location has more than<br> one entry. Zoom in and search table!</strong/>",TRUE
"New","Ampol Foodary Braddon","36 Lonsdale Street","Braddon","09/09/2021 - Thursday","9:00pm","9:40pm","Monitor",-35.2710315,149.1334298,"",FALSE
"New","McDonalds Fyshwick","173 Newcastle Street","Fyshwick","09/09/2021 - Thursday","3:45pm","4:00pm","Monitor",-35.3251136,149.1713739,"",FALSE
"New","Woolworths Metro Cameron Avenue","1/6 Grazier Lane","Belconnen","09/09/2021 - Thursday","3:15pm","4:00pm","Monitor",-35.2401725,149.0718813,"<strong/>!Location has more than<br> one entry. Zoom in and search table!</strong/>",TRUE
"New","Abode Woden","10 Bowes Street","Phillip","09/09/2021 - Thursday","12:00am","11:59pm","Monitor",-35.3433861,149.0857964,"<strong/>!Location has more than<br> one entry. Zoom in and search table!</strong/>",TRUE
"New","Coyote Catering and Cafe","1/8 Gladstone","Fyshwick","09/09/2021 - Thursday","8:00am","10:30am","Casual",-35.3230401,149.1736403,"",FALSE
"","Coles Canberra Centre","Canberra Centre, 148 Bunda Street","Canberra City","08/09/2021 - Wednesday","1:35pm","2:30pm","Casual",-35.2802271,149.1332059,"",FALSE
"","The Reject Shop Kippax","Kippax Fair Shopping Centre, Hardwick Crescent","Holt","08/09/2021 - Wednesday","5:10pm","6:00pm","Monitor",-35.2222071,149.0195758,"",FALSE
"","Optimal Pharmacy Plus Jamison","Jamison Plaza, Bowman Street","Macquarie","08/09/2021 - Wednesday","9:30am","10:15am","Monitor",-35.2527782,149.0718808,"",FALSE
"","ALDI Kippax","Kippax Fair Shopping Centre, Hardwick Crescent","Holt","08/09/2021 - Wednesday","5:20pm","6:20pm","Casual",-35.2218013,149.0195363,"",FALSE
"","Kippax Fair Shopping Centre","26 Hardwick Crescent","Holt","08/09/2021 - Wednesday","5:10pm","6:20pm","Monitor",-35.2218013,149.0194613,"",FALSE
"","Woolworths Kambah","2 Primmer Court","Kambah","08/09/2021 - Wednesday","3:30pm","5:00pm","Casual",-35.3801801,149.0572447,"",FALSE
"","7-Eleven Casey","10 Kingsland Parade","Casey","08/09/2021 - Wednesday","1:30pm","2:15pm","Monitor",-35.175773,149.0957076,"",FALSE
"","7-Eleven Casey","10 Kingsland Parade","Casey","08/09/2021 - Wednesday","6:20pm","7:00pm","Monitor",-35.175773,149.0956826,"",FALSE
"","ALDI Kippax","Kippax Fair Shopping Centre, Hardwick Crescent","Holt","08/09/2021 - Wednesday","4:20pm","5:00pm","Monitor",-35.2218013,149.0195113,"",FALSE
"","Bus Route 5 Transport Canberra Code BUS538","Lanyon Shops to City Interchange","Public Transport","08/09/2021 - Wednesday","8:19am","9:20am","Casual",-35.2784467,149.1302294,"",FALSE
"","Cedars of Lebanon","Southlands Centre, Mawson Place","Mawson","08/09/2021 - Wednesday","2:00pm","3:10pm","Casual",-35.3653507,149.0943024,"",FALSE
"","Chemist Warehouse Belconnen Markets","2 Ibbott Lane","Belconnen","08/09/2021 - Wednesday","3:30pm","4:15pm","Monitor",-35.2461471,149.0645897,"",FALSE
"","Coffee Guru Casey","Casey Marketown, 15 Kingsland Parade","Casey","08/09/2021 - Wednesday","7:40am","8:20am","Monitor",-35.1745939,149.0952975,"",FALSE
"","Corks Liquor Conder","18 Norman Lindsay Street","Conder","08/09/2021 - Wednesday","6:40pm","7:20pm","Monitor",-35.4583852,149.0934812,"",FALSE
"","Costco Canberra","39-41 Mustang Avenue","Canberra Airport","08/09/2021 - Wednesday","4:00pm","5:10pm","Casual",-35.2972375,149.1905589,"",FALSE
"","Costco Fuel","39 Mustang Avenue","Canberra Airport","08/09/2021 - Wednesday","3:30pm","4:30pm","Monitor",-35.2972375,149.1906089,"",FALSE
"","IGA Banks","Pockett Avenue and Brockway Street","Banks","08/09/2021 - Wednesday","8:10am","8:50am","Monitor",-35.4725,149.0955056,"<strong/>!Location has more than<br> one entry. Zoom in and search table!</strong/>",TRUE
"","Woolworths Conder","Lanyon Marketplace, 4 Sidney Nolan Street","Conder","08/09/2021 - Wednesday","3:50pm","5:00pm","Casual",-35.457644,149.092411,"",FALSE
"","Woolworths Conder","Lanyon Marketplace, 4 Sidney Nolan Street","Conder","08/09/2021 - Wednesday","6:50pm","7:30pm","Monitor",-35.457644,149.092386,"",FALSE
"","Malkara Specialist School","53 Wisdom Street","Garran","08/09/2021 - Wednesday","8:30am","3:30pm","Close",-35.3375707,149.0939624,"",FALSE
"","Mint Rd","4/59 Boolimba Crescent","Narrabundah","08/09/2021 - Wednesday","8:35am","9:10am","Monitor",-35.3328842,149.1537066,"",FALSE
"","Narrabundah Friendly Grocer","6 Iluka Street","Narrabundah","08/09/2021 - Wednesday","1:40pm","2:30pm","Casual",-35.3325783,149.1539734,"",FALSE
"","Shell Coles Express Charnwood","Lhotsky Street and Charnwood Place","Charnwood","08/09/2021 - Wednesday","5:00pm","6:00pm","Monitor",-35.2056325,149.0333072,"",FALSE
"","Amcal+ Pharmacy Belconnen","Westfield Belconnen, Benjamin Way","Belconnen","08/09/2021 - Wednesday","9:10am","10:25am","Casual",-35.2464419,149.0675969,"",FALSE
"","Coles Express Hawker","20 Springvale Drive and Hawker Place","Hawker","08/09/2021 - Wednesday","10:10am","11:00am","Monitor",-35.2441665,149.044002,"",FALSE
"","IGA Yarralumla","23 Bentham Street","Yarralumla","08/09/2021 - Wednesday","1:00pm","1:40pm","Monitor",-35.3073634,149.0976678,"",FALSE
"","Molonglo Dental Surgery","5/110 Woodberry Avenue","Coombs","08/09/2021 - Wednesday","9:50am","3:30pm","Casual",-35.3196945,149.0399585,"",FALSE
"","Narrabundah Pharmacy and Post Office","18 Iluka Street","Narrabundah","08/09/2021 - Wednesday","8:35am","9:15am","Monitor",-35.3328701,149.1538091,"",FALSE
"","Woolworths Mawson","15 Mawson Place","Mawson","08/09/2021 - Wednesday","3:25pm","4:10pm","Monitor",-35.3661449,149.0945946,"",FALSE
"","Coles Manuka","Franklin Street and Flinders Way","Griffith","08/09/2021 - Wednesday","5:00pm","5:45pm","Monitor",-35.3210247,149.1341446,"",FALSE
"","Boss Projects Group, Gungahlin Village Site","Gungahlin Place and Hibberson Street","Gungahlin","08/09/2021 - Wednesday","7:00am","4:00pm","Casual",-35.1868916,149.1367394,"",FALSE
"","Dina's Liquor","7 East Row Street","Canberra City","08/09/2021 - Wednesday","10:00pm","11:00pm","Monitor",-35.2794041,149.1303887,"<strong/>!Location has more than<br> one entry. Zoom in and search table!</strong/>",TRUE
"","7-Eleven Braddon","20 Mort Street","Braddon","08/09/2021 - Wednesday","2:30am","3:30am","Monitor",-35.275691,149.1316158,"<strong/>!Location has more than<br> one entry. Zoom in and search table!</strong/>",TRUE
"","ALDI Canberra Centre","Canberra Centre, 148 Bunda Street","Canberra City","08/09/2021 - Wednesday","9:00am","10:00am","Monitor",-35.2802271,149.1331809,"",FALSE
"","Lanyon Post Office","Lanyon Marketplace, 4 Sidney Nolan Street","Conder","08/09/2021 - Wednesday","3:45pm","4:40pm","Casual",-35.457682,149.0924997,"",FALSE
"","Woolworths Metro Cameron Avenue","1/6 Grazier Lane","Belconnen","08/09/2021 - Wednesday","1:40pm","2:20pm","Monitor",-35.2401725,149.0719813,"<strong/>!Location has more than<br> one entry. Zoom in and search table!</strong/>",TRUE
"","Woolworths Metro Cameron Avenue","1/6 Grazier Lane","Belconnen","08/09/2021 - Wednesday","4:10pm","4:50pm","Monitor",-35.2401725,149.0719313,"<strong/>!Location has more than<br> one entry. Zoom in and search table!</strong/>",TRUE
"New","Woolworths Conder","Lanyon Marketplace, 4 Sidney Nolan Street","Conder","08/09/2021 - Wednesday","3:45pm","4:45pm","Monitor",-35.457644,149.092411,"<strong/>!Location has more than<br> one entry. Zoom in and search table!</strong/>",TRUE
"New","Abode Woden","10 Bowes Street","Phillip","08/09/2021 - Wednesday","8:00pm","11:59pm","Monitor",-35.3433861,149.0857464,"<strong/>!Location has more than<br> one entry. Zoom in and search table!</strong/>",TRUE
"New","Woolworths Metro Cameron Avenue","1/6 Grazier Lane","Belconnen","08/09/2021 - Wednesday","9:40pm","10:00pm","Monitor",-35.2401725,149.0718313,"<strong/>!Location has more than<br> one entry. Zoom in and search table!</strong/>",TRUE
"New","ACT Endodontics","Suite 1A, 11 Fitzroy Street","Forrest","08/09/2021 - Wednesday","10:00am","11:10am","Casual",-35.315477,149.132857,"",FALSE
"","Optimal Pharmacy Plus Jamison","Jamison Plaza, Bowman Street","Macquarie","07/09/2021 - Tuesday","7:55am","8:40am","Monitor",-35.2527782,149.0718308,"",FALSE
"","IBIS Budget Hotel Canberra","15 Tay Street","Watson","07/09/2021 - Tuesday","12:00am","4:00pm","Casual",-35.224856,149.1671233,"",FALSE
"","CG's Discount Tobacconist","25 Dickson Place","Dickson","07/09/2021 - Tuesday","10:50am","11:30am","Monitor",-35.2502305,149.1394208,"",FALSE
"","CG's Discount Tobacconist","25 Dickson Place","Dickson","07/09/2021 - Tuesday","2:10pm","3:10pm","Monitor",-35.2502305,149.1393708,"",FALSE
"","Corks Liquor Conder","18 Norman Lindsay Street","Conder","07/09/2021 - Tuesday","4:40pm","5:30pm","Monitor",-35.4583852,149.0934312,"",FALSE
"","Corks Liquor Conder","18 Norman Lindsay Street","Conder","07/09/2021 - Tuesday","7:45pm","8:30pm","Monitor",-35.4583852,149.0933812,"",FALSE
"","SPAR Express Ngunnawal","Ngunnawal Local Centre, Wanganeen Avenue","Ngunnawal","07/09/2021 - Tuesday","7:50pm","9:00pm","Monitor",-35.173951,149.108155,"",FALSE
"","Woolworths Erindale","Erindale Shopping Centre, 50-68 Comrie Street","Wanniassa","07/09/2021 - Tuesday","2:30pm","3:30pm","Monitor",-35.4035739,149.098677,"",FALSE
"","Malkara Specialist School","53 Wisdom Street","Garran","07/09/2021 - Tuesday","8:30am","3:30pm","Close",-35.3375707,149.0939124,"",FALSE
"","Nipperville Early Learning Centre","6 Gwynne Street","Watson","07/09/2021 - Tuesday","8:45am","6:10pm","Close",-35.2391185,149.1527793,"",FALSE
"","Shell Coles Express Charnwood","Lhotsky Street and Charnwood Place","Charnwood","07/09/2021 - Tuesday","10:00am","11:00am","Casual",-35.2056325,149.0332572,"",FALSE
"","BlackJack Kiosk","50-68 Comrie Street","Wanniassa","07/09/2021 - Tuesday","11:25am","12:00pm","Monitor",-35.4040236,149.0984256,"",FALSE
"","Hungry Jacks Fyshwick","Corner 100 Newcastle Street and Wollongong Street","Fyshwick","07/09/2021 - Tuesday","3:35pm","4:30pm","Monitor",-35.3278777,149.1779293,"",FALSE
"","NewsXpress Wanniassa","50-68 Comrie Street","Wanniassa","07/09/2021 - Tuesday","11:31am","12:00pm","Monitor",-35.4035739,149.098652,"",FALSE
"","Woolworths Erindale","50-68 Comrie Street","Wanniassa","07/09/2021 - Tuesday","11:30am","12:00pm","Monitor",-35.4035739,149.098602,"",FALSE
"","ALDI Canberra Centre","Canberra Centre, 148 Bunda Street","Canberra City","07/09/2021 - Tuesday","9:00am","10:00am","Monitor",-35.2802271,149.1331309,"",FALSE
"","Dina's Liquor","7 East Row Street","Canberra City","07/09/2021 - Tuesday","10:00pm","11:00pm","Monitor",-35.2794041,149.1303387,"<strong/>!Location has more than<br> one entry. Zoom in and search table!</strong/>",TRUE
"","Local Liquor East Row","22-58 East Row Street","Canberra City","07/09/2021 - Tuesday","7:00pm","8:00pm","Monitor",-35.2794041,149.1303137,"",FALSE
"","Lanyon Post Office","Lanyon Marketplace, 4 Sidney Nolan Street","Conder","07/09/2021 - Tuesday","12:25pm","1:00pm","Monitor",-35.457682,149.0924497,"",FALSE
"New","Woolworths Conder","Lanyon Marketplace, 4 Sidney Nolan Street","Conder","07/09/2021 - Tuesday","12:20pm","1:10pm","Monitor",-35.457644,149.092361,"<strong/>!Location has more than<br> one entry. Zoom in and search table!</strong/>",TRUE
"New","Lanyon Pharmacy","Lanyon Marketplace, 4 Sidney Nolan Street","Conder","07/09/2021 - Tuesday","8:50am","9:40am","Monitor",-35.4574587,149.0925305,"<strong/>!Location has more than<br> one entry. Zoom in and search table!</strong/>",TRUE
"","Chatterbox Espresso Bar","40 Cameron Avenue","Belconnen","06/09/2021 - Monday","10:00am","10:45am","Monitor",-35.2412975,149.071078,"",FALSE
"","Optimal Pharmacy Plus Jamison","Jamison Plaza, Bowman Street","Macquarie","06/09/2021 - Monday","9:00am","10:50am","Monitor",-35.2527782,149.0717808,"",FALSE
"","ABS Census Campus (Level 1)","40 Cameron Avenue","Belconnen","06/09/2021 - Monday","8:40am","5:30pm","Casual",-35.2414537,149.071264,"",FALSE
"","IBIS Budget Hotel Canberra","15 Tay Street","Watson","06/09/2021 - Monday","12:00am","11:59pm","Casual",-35.224856,149.1670733,"",FALSE
"","Shell Coles Express Charnwood","Lhotsky Street and Charnwood Place","Charnwood","06/09/2021 - Monday","3:10pm","4:10pm","Monitor",-35.2056325,149.0332072,"",FALSE
"","Bus Route 4 Transport Canberra Code BUS620","Woden (Launceston St) to Tuggeranong Interchange","Public Transport","06/09/2021 - Monday","1:14pm","1:32pm","Casual",-35.3452,149.095,"",FALSE
"","Bus Route 4 Transport Canberra Code BUS629","Tuggeranong Interchange to Woden (Launceston St)","Public Transport","06/09/2021 - Monday","11:06am","11:25am","Casual",-35.4244,149.0888,"",FALSE
"","Bus Route 66 Transport Canberra Code BUS504","Woden (Launceston St) to Coombs (Fred Daly Ave)","Public Transport","06/09/2021 - Monday","11:37am","11:57am","Casual",-35.315757,149.0407633,"",FALSE
"","Bus Route 66 Transport Canberra Code BUS504","Coombs (Annabelle View) to Woden (Launceston St)","Public Transport","06/09/2021 - Monday","12:55pm","1:07pm","Casual",-35.3157579,149.0444266,"",FALSE
"","Bus Route 81 Transport Canberra Code BUS478","Gordon (Knoke Ave) to Tuggeranong Interchange","Public Transport","06/09/2021 - Monday","10:38am","11:05am","Casual",-35.458172,149.086239,"",FALSE
"","Bus Route 81 Transport Canberra Code BUS709","Tuggeranong Interchange to Gordon (Knoke Ave)","Public Transport","06/09/2021 - Monday","2:10pm","2:30pm","Casual",-35.4654631,149.0852124,"",FALSE
"","Woolworths Tuggeranong","Corner Anketell and Reed Street","Greenway","06/09/2021 - Monday","1:30pm","3:00pm","Casual",-35.4171865,149.0676648,"",FALSE
"","Nipperville Early Learning Centre","6 Gwynne Street","Watson","06/09/2021 - Monday","8:45am","6:10pm","Close",-35.2391185,149.1527293,"",FALSE
"","Woolworths Dunlop","80 Lance Hill Avenue","Dunlop","06/09/2021 - Monday","7:30am","8:30am","Monitor",-35.194468,149.0195435,"",FALSE
"","BlackJack Kiosk","50-68 Comrie Street","Wanniassa","06/09/2021 - Monday","10:00am","10:40am","Monitor",-35.4040236,149.0983756,"",FALSE
"","40 Cameron Avenue (Entire Building)","40 Cameron Avenue","Belconnen","06/09/2021 - Monday","8:40am","5:30pm","Monitor",-35.2412975,149.071028,"",FALSE
"","Coles Manuka","Franklin Street and Flinders Way","Griffith","06/09/2021 - Monday","5:10pm","6:15pm","Monitor",-35.3210247,149.1340946,"",FALSE
"","Coles Manuka","Franklin Street and Flinders Way","Griffith","06/09/2021 - Monday","2:00pm","2:50pm","Monitor",-35.3210247,149.1340446,"",FALSE
"New","Woolworths Conder","Lanyon Marketplace, 4 Sidney Nolan Street","Conder","06/09/2021 - Monday","11:56am","12:45pm","Monitor",-35.457644,149.092311,"<strong/>!Location has more than<br> one entry. Zoom in and search table!</strong/>",TRUE
"New","Woolworths Kippax","Kippax Fair Shopping Centre, 26 Hardwick Crescent","Holt","06/09/2021 - Monday","10:10am","10:50am","Monitor",-35.2218013,149.0194113,"<strong/>!Location has more than<br> one entry. Zoom in and search table!</strong/>",TRUE
"New","ALDI Conder","9 Sidney Nolan Street","Conder","04/09/2021 - Saturday","8:25am","9:30am","Casual",-35.4565418,149.093431,"<strong/>!Location has more than<br> one entry. Zoom in and search table!</strong/>",TRUE
"New","Woolworths Kippax","Kippax Fair Shopping Centre, 26 Hardwick Crescent","Holt","03/09/2021 - Friday","11:50am","12:20pm","Monitor",-35.2218013,149.0193613,"<strong/>!Location has more than<br> one entry. Zoom in and search table!</strong/>",TRUE
"New","Coles Express Belconnen","Lathlain Street and Wignall Place","Belconnen","01/09/2021 - Wednesday","1:45pm","2:45pm","Monitor",-35.242649,149.063986,"",FALSE
"","Dan Murphy's Belconnen","Westfield Belconnen, Benjamin Way","Belconnen","31/08/2021 - Tuesday","6:15pm","7:00pm","Monitor",-35.2386514,149.064091,"",FALSE
"","IBIS Budget Hotel Canberra","15 Tay Street","Watson","31/08/2021 - Tuesday","12:00am","11:59pm","Casual",-35.224856,149.1667733,"",FALSE
"","Woolworths Belconnen","Westfield Belconnen, Benjamin Way","Belconnen","31/08/2021 - Tuesday","6:25pm","7:20pm","Casual",-35.2380765,149.0649672,"",FALSE
"","Woolworths Charnwood","25-30 Charnwood Place","Charnwood","31/08/2021 - Tuesday","11:50am","1:00pm","Casual",-35.2045295,149.0328078,"",FALSE
"","IBIS Budget Hotel Canberra","15 Tay Street","Watson","30/08/2021 - Monday","12:00am","11:59pm","Casual",-35.224856,149.1667233,"",FALSE
"","IBIS Budget Hotel Canberra","15 Tay Street","Watson","29/08/2021 - Sunday","12:00am","11:59pm","Casual",-35.224856,149.1666733,"",FALSE
"","IBIS Budget Hotel Canberra","15 Tay Street","Watson","28/08/2021 - Saturday","12:00am","11:59pm","Casual",-35.224856,149.1666233,"",FALSE
"","Bus Route 2 Transport Canberra Code BUS322","Canberra Outlet Centre to Wentworth Avenue (Fyshwick)","Public Transport","27/08/2021 - Friday","1:28pm","1:34pm","Casual",-35.3166812,149.1453377,"",FALSE
"","Bus Route 2 Transport Canberra Code BUS329","Wentworth Avenue (Fyshwick) to Canberra Outlet Centre","Public Transport","27/08/2021 - Friday","10:19am","10:26am","Casual",-35.3166812,149.1453877,"",FALSE
"","IBIS Budget Hotel Canberra","15 Tay Street","Watson","27/08/2021 - Friday","6:00pm","11:59pm","Casual",-35.224856,149.1665733,"",FALSE
"","Shop Rite","2 Barker Street","Griffith","27/08/2021 - Friday","6:30pm","7:00pm","Monitor",-35.3284308,149.142856,"",FALSE
